[{"status":"success","statusCode":200,"data":{"hospitalMasterList":[{"lat":"26.7622987","lng":"94.2159649","State":"ASSAM","ContactNumber":"91-9401666418","Area":"JORHAT","District":"JORHAT","City":"JORHAT","NewProviderCode":"HGIX03151","RefCode":"0","MailId":"drshyammalpani@hotmail.com","IsActive":true,"PMT_Member":"Pankaj Narzary","Pin_Code":"785001","Hospital_Name":"Medicure Centre (Malpani Hospital & Research Institute)","Type":"IPD","Address":"Medicure Centre,Rajamaidan Road,","Priority":5},{"lat":"13.067655","lng":"80.248476","State":"TAMIL NADU","ContactNumber":"91-4442271806","Area":"CHENNAI","District":"CHENNAI","City":"CHENNAI","NewProviderCode":"HGIX01781","RefCode":"0","MailId":"corpsecy@snmail.org","IsActive":true,"PMT_Member":"SIRISHA SIMHA","Pin_Code":"600006","Hospital_Name":"Sankara Nethralaya (A Unit Of Medical Research Foundation)","Type":"IPD","Address":"No.18, Collage Road,,","Priority":5},{"lat":"12.9964933","lng":"77.61209","State":"Karnataka","ContactNumber":"7.76E+09","Area":"Frazer Town","District":"Bangalore","City":"Bangalore","NewProviderCode":"HGOX01790","RefCode":"HGIX01247","MailId":"NA","IsActive":true,"PMT_Member":"Jaikant Cs","Pin_Code":"560005","Hospital_Name":"Dr. Agarwals Eye Hospital","Type":"OPD","Address":"No.33, Coles Road, Frazer Town","Priority":5},{"lat":"19.1982404","lng":"72.9490094","State":"MAHARASHTRA","ContactNumber":"91-9322004846","Area":"THANE","District":"PALGHAR","City":"THANE","NewProviderCode":"CHEM0001","RefCode":"0","MailId":"amrita@purpleribbon.health","IsActive":true,"PMT_Member":"Sachin Patil","Pin_Code":"400604","Hospital_Name":"Purple Robbon Healthcare Services Private Limited","Type":"OPD","Address":"Unit.1A&B1st B-Wing Ashar IT Park 16Z Road Wagle Estate,Unit.1A&B1st B-Wing Ashar IT Park 16Z Road Wagle Estate,Unit.1A&B1st B-Wing Ashar IT Park 16Z Road Wagle Estate","Priority":5},{"lat":"18.7111985","lng":"73.0500651","State":"MAHARASHTRA","ContactNumber":"91-8551951311","Area":"PEN","District":"RAIGARH","City":"PEN","NewProviderCode":"HGIX07844","RefCode":"0","MailId":"jsmsh.dolvi@gmail.com","IsActive":true,"PMT_Member":"Dr.Sachin Mahajan","Pin_Code":"402107","Hospital_Name":"JSW Sanjeevani Multispeciality Hospital Dolvi","Type":"IPD","Address":"AT-Wawe Dolvi Wadkhal Dharamtar Road Near Dharamtak Police Check Post,AT-Wawe Dolvi Wadkhal Dharamtar Road Near Dharamtak Police Check Post,AT-Wawe Dolvi Wadkhal Dharamtar Road Near Dharamtak Police Check Post","Priority":5},{"lat":"12.9254239","lng":"77.5768065","State":"KARNATAKA","ContactNumber":"0","Area":"NA","District":"BANGALORE","City":"BANGALORE SOUTH","NewProviderCode":"RHIN04412","RefCode":"0","MailId":"digvijaya.insurance@gmail.com","IsActive":true,"PMT_Member":"SURYAKANT DESHETTY","Pin_Code":"560082","Hospital_Name":"Digvijaya Hospital","Type":"IPD","Address":"No 124 7Th Block Jayanagar Kanakapura Main Road Bengaluru,No 124 7Th Block Jayanagar Kanakapura Main Road Bengaluru,No 124 7Th Block Jayanagar Kanakapura Main Road Bengaluru","Priority":5},{"lat":"25.604662","lng":"85.08617","State":"Bihar","ContactNumber":"9.33E+09","Area":"Pura Patna","District":"Patna","City":"Patna","NewProviderCode":"HGOX02044","RefCode":"HGIX02646","MailId":"mohansingh@gmail.com","IsActive":true,"PMT_Member":"Ajai Saxena","Pin_Code":"800014","Hospital_Name":"Satyam Hospital ( A Unit Of Satyam Nursing Home Research Center Pvt Ltd)","Type":"OPD","Address":"Brahamsthan Sheikhpura, Bailey Rd, Sheikh Pura Patna","Priority":5},{"lat":"22.6037402","lng":"88.41409","State":"West Bengal","ContactNumber":"9.23E+09","Area":"Kolkata","District":"24 Pgs (North)","City":"Kolkata","NewProviderCode":"HGOX00296","RefCode":"HGIX01322","MailId":"umni2001@gmail.com","IsActive":true,"PMT_Member":"Ajai Saxena","Pin_Code":"700157","Hospital_Name":"Uma Medical Related Institute Pvt Ltd","Type":"OPD","Address":"V.I.P Road, Opp Of Exide,Teghoria, Kolkata","Priority":5},{"lat":"25.6027552","lng":"85.1568","State":"Bihar","ContactNumber":"9.39E+09","Area":"Patna","District":"Patna","City":"Patna","NewProviderCode":"HGOX01862","RefCode":"HGIX02650","MailId":"karanhot.45@gmail.com","IsActive":true,"PMT_Member":"Ajai Saxena","Pin_Code":"800020","Hospital_Name":"Sri Ram Hospital","Type":"OPD","Address":"West Of Rajender Nagar, Over Bridge N.C.1, Lohiya Nagar, Kankar Bagh Patna","Priority":5},{"lat":"13.0916632","lng":"80.25383889999999","State":"TAMIL NADU","ContactNumber":"91-8550988881","Area":"CHENNAI","District":"CHENNAI","City":"CHENNAI","NewProviderCode":"HGOX02981","RefCode":"0","MailId":"sdcp.rgicl@gmail.com","IsActive":true,"PMT_Member":"SIRISHA SIMHA","Pin_Code":"600012","Hospital_Name":"SECURE DENTAL CARE","Type":"OPD","Address":"Dr.Tharani Dental Clinic,,No.47,,Chellappa Street, Ottery","Priority":5},{"lat":"12.955087","lng":"77.705053","State":"KARNATAKA","ContactNumber":"91-9611046629","Area":"BANGALORE","District":"BANGALORE","City":"BANGALORE","NewProviderCode":"HGIX00778","RefCode":"0","MailId":"rohan_kennedy@yashomatihospital.com","IsActive":true,"PMT_Member":"SURYAKANT DESHETTY","Pin_Code":"560037","Hospital_Name":"YASHOMATI HOSPITAL PVT LTD","Type":"IPD","Address":"2371/3 HAL AIRPORT- VARTHUR ROAD MUNNE KOLALA MARATHAHALLI,,","Priority":5},{"lat":"23.5235311","lng":"87.33937","State":"West Bengal","ContactNumber":"9.73E+09","Area":"Bidhan Nagar","District":"Burdwan","City":"Durgapur","NewProviderCode":"HGOX02307","RefCode":"HGIX03158","MailId":"hospitalvivekananda@yahoo.com","IsActive":true,"PMT_Member":"Ajai Saxena","Pin_Code":"713206","Hospital_Name":"Vivekananda Hospital Pvt. Ltd.","Type":"OPD","Address":"Dr. Zakir Hussain Avenue, Bidhan Nagar","Priority":5},{"lat":"12.9974154","lng":"80.2513195","State":"TAMIL NADU","ContactNumber":"91-0000000000","Area":"CHENNAI CITY CORPORATION","District":"CHENNAI","City":"CHENNAI CITY CORPORATION","NewProviderCode":"RHIN01915","RefCode":"0","MailId":"adyar@dragarwal.com","IsActive":true,"PMT_Member":"SIRISHA SIMHAM","Pin_Code":"600020","Hospital_Name":"Dr.Agarwal'S Health Care Ltd","Type":"IPD","Address":"49&50, 1St Floor, Classic Royal, Opp: Imcpos,Indira Nagar, Adyar, Chennai,,","Priority":5},{"lat":"17.413338","lng":"78.49535","State":"TELANGANA","ContactNumber":"91-7674888683","Area":"HYDERABAD","District":"HYDERABAD","City":"HYDERABAD","NewProviderCode":"HGIX01708","RefCode":"0","MailId":"corpdesk@globalhospitalsindia.com","IsActive":true,"PMT_Member":"SURYAKANT DESHETTY","Pin_Code":"500004","Hospital_Name":"Gleneagles Global Hospitals","Type":"IPD","Address":"6-1-1070/1 To 04, Lakdi Ka Pool,,","Priority":5},{"lat":"12.849802","lng":"74.868257","State":"KARNATAKA","ContactNumber":"91-9686055737","Area":"MANGALORE","District":"DAKSHINA KANNADA","City":"MANGALORE","NewProviderCode":"HGIX02201","RefCode":"0","MailId":"insurance@indianahospital.in","IsActive":true,"PMT_Member":"SURYAKANT DESHETTY","Pin_Code":"575002","Hospital_Name":"Indiana Hospital & Heat Institute Ltd.","Type":"IPD","Address":"Mahaveer Circle,Pumpwell, Kankanady P O,,","Priority":5},{"lat":"27.4914919","lng":"94.93341","State":"Assam","ContactNumber":"9954732950/9401710095","Area":"Dibrugarh","District":"Dibrugarh","City":"Dibrugarh","NewProviderCode":"HGOX01866","RefCode":"HGIX04876","MailId":"adityahospitalsdib@gmail.com","IsActive":true,"PMT_Member":"Ajai Saxena","Pin_Code":"786005","Hospital_Name":"Aditya Diagnostics & Hospital","Type":"OPD","Address":"Bordoloi Avenue, Dibrugarh, AMC Road, P O Jalan Nagar","Priority":5},{"lat":"13.0192425","lng":"77.6558975","State":"KARNATAKA","ContactNumber":"91-8550988881","Area":"BANGALORE NORTH","District":"BANGALORE","City":"BANGALORE NORTH","NewProviderCode":"HGOX03085","RefCode":"0","MailId":"sdcp.rgicl@gmail.com","IsActive":true,"PMT_Member":"SURYAKANT DESHETTY","Pin_Code":"560043","Hospital_Name":"SECURE DENTAL CARE","Type":"OPD","Address":"Floss And Gloss Dental Care, #41 42, Basement, Below Pooja Spirits, Horamavu Junction,Floss And Gloss Dental Care, #41 42, Basement, Below Pooja Spirits, Horamavu Junction,Floss And Gloss Dental Care, #41 42, Basement, Below Pooja Spirits, Horamavu Junction","Priority":5},{"lat":"26.1006948","lng":"91.8699278","State":"ASSAM","ContactNumber":"91-9435346699","Area":"GUWAHATI","District":"KAMRUP","City":"GUWAHATI","NewProviderCode":"HGIX04319","RefCode":"0","MailId":"nechri@sify.com","IsActive":true,"PMT_Member":"Pankaj Narzary","Pin_Code":"781023","Hospital_Name":"North East Cancer Hospial And Research Institute","Type":"IPD","Address":"11th Mile, Amerigog Jorabat, Guwahati,,","Priority":5},{"lat":"25.5706702","lng":"91.89771309999999","State":"MEGHALAYA","ContactNumber":"91-8794829020","Area":"SHILLONG","District":"EAST KHASI HILLS","City":"SHILLONG","NewProviderCode":"HGIX05524","RefCode":"0","MailId":"nazarethcorporate2016@gmail.com","IsActive":true,"PMT_Member":"Pankaj Narzary","Pin_Code":"793003","Hospital_Name":"Nazareth Hospital Society","Type":"IPD","Address":"Laitumkhrah, Nr. Police Point,Laitumkhrah, Nr. Police Point,","Priority":5},{"lat":"12.88427","lng":"74.836092","State":"KARNATAKA","ContactNumber":"91-9008937156","Area":"MANGALORE","District":"DAKSHINA KANNADA","City":"MANGALORE","NewProviderCode":"HGIX00896","RefCode":"0","MailId":"harirammemorial@gmail.com","IsActive":true,"PMT_Member":"SURYAKANT DESHETTY","Pin_Code":"575003","Hospital_Name":"HARIRAM MEMORIAL MEDICAL CENTRE","Type":"IPD","Address":"KAMLA CROSS ROAD, KUDROLI GOKARNATHESHWAR TEMPLE,,","Priority":5},{"lat":"26.1493746","lng":"91.7859574","State":"ASSAM","ContactNumber":"91-9821465665","Area":"GMC","District":"KAMRUP","City":"GMC","NewProviderCode":"HGIX06094","RefCode":"0","MailId":"assist@theretinacentre.com","IsActive":true,"PMT_Member":"Pankaj Narzary","Pin_Code":"781022","Hospital_Name":"The Retina Centre(A Unit Of Confetti Holdings Pvt LTD","Type":"IPD","Address":"5th&6th Floor subham Bijay Crescent,Rukminigaon,G.S Road,5th&6th Floor subham Bijay Crescent,Rukminigaon,G.S Road,5th&6th Floor subham Bijay Crescent,Rukminigaon,G.S Road","Priority":5},{"lat":"22.5338461","lng":"88.35232","State":"West Bengal","ContactNumber":"9.90E+09","Area":"Bawanipore","District":"Kolkata","City":"Kolkata","NewProviderCode":"HGOX02638","RefCode":"HGIX02124","MailId":"shreenetra.eyefoundation@gmail.com","IsActive":true,"PMT_Member":"Ajai Saxena","Pin_Code":"700020","Hospital_Name":"Shree Netra Eye Foundation","Type":"OPD","Address":"73, Chakra Beria, Road(North), Baowanipore","Priority":5},{"lat":"27.4869909","lng":"94.9141152","State":"ASSAM","ContactNumber":"91-9435031136","Area":"DIBRUGARH","District":"DIBRUGARH","City":"DIBRUGARH","NewProviderCode":"HGIX04889","RefCode":"0","MailId":"damani_medicos@rediffmail.com","IsActive":true,"PMT_Member":"Pankaj Narzary","Pin_Code":"786001","Hospital_Name":"Dr Damani's Nursing Home","Type":"IPD","Address":"L G B Avenue Near,Circuit House Road,","Priority":5},{"lat":"12.9424683","lng":"77.54736","State":"Karnataka","ContactNumber":"9.61E+09","Area":"Banglore","District":"Bangalore","City":"Bangalore","NewProviderCode":"HGOX02671","RefCode":"HGIX00828","MailId":"thepulshospital2011@gmail.com","IsActive":true,"PMT_Member":"Jaikant Cs","Pin_Code":"560085","Hospital_Name":"The Pulse Multispeciality Hospital","Type":"OPD","Address":"5/8/1, 20Th Main, 50Th Road, Muneshwara Block, Girinagar, Bangalore","Priority":5},{"lat":"22.5642394","lng":"88.3532","State":"West Bengal","ContactNumber":"8.70E+09","Area":"Lenin Serani","District":"Kolkata","City":"Kolkata","NewProviderCode":"HGOX00285","RefCode":"HGIX02125","MailId":"tpa@gddihealthcare.com","IsActive":true,"PMT_Member":"Ajai Saxena","Pin_Code":"700013","Hospital_Name":"G.D. Hospital & Diabetes Institute","Type":"OPD","Address":"139, A, Lenin Serani Kolkata","Priority":5},{"lat":"26.1792286","lng":"91.7532732","State":"ASSAM","ContactNumber":"91-9706358043","Area":"DIBRUGARH","District":"DIBRUGARH","City":"DIBRUGARH","NewProviderCode":"HGIX04935","RefCode":"0","MailId":"Sanjivanihospitals@gmail.com","IsActive":true,"PMT_Member":"Pankaj Narzary","Pin_Code":"786005","Hospital_Name":"Sanjivani Diagnostics & Hospital (A Unit of Green Valley Diagnostics & Hospitals Pvt Ltd )","Type":"IPD","Address":"Bordoloi Avenue,AMCH Road,","Priority":5},{"lat":"9.9660083","lng":"76.29851479999999","State":"KERALA","ContactNumber":"91-8550988881","Area":"ERNAKULAM","District":"ERNAKULAM","City":"ERNAKULAM","NewProviderCode":"HGOX03139","RefCode":"0","MailId":"sdcp.rgicl@gmail.com","IsActive":true,"PMT_Member":"Jincy John","Pin_Code":"682020","Hospital_Name":"SECURE DENTAL CARE","Type":"OPD","Address":"Facets Dental Clinic, 12th Girinagar, 2nd Cross Road, Kadavanthra, Kochi,Facets Dental Clinic, 12th Girinagar, 2nd Cross Road, Kadavanthra, Kochi,Facets Dental Clinic, 12th Girinagar, 2nd Cross Road, Kadavanthra, Kochi","Priority":5},{"lat":"11.009027","lng":"76.957839","State":"TAMIL NADU","ContactNumber":"91-9364469131","Area":"COIMBATORE","District":"COIMBATORE","City":"COIMBATORE","NewProviderCode":"HGIX01357","RefCode":"0","MailId":"senthiilhospenquiry@gmail.com","IsActive":true,"PMT_Member":"SIRISHA SIMHA","Pin_Code":"641002","Hospital_Name":"Senthiil Hospital LLP","Type":"IPD","Address":"8/1, R And R Lay Out, RS Puram, Coimbatore,,","Priority":5},{"lat":"25.6224743","lng":"85.04027","State":"Bihar","ContactNumber":"8.65E+09","Area":"Beiley Rd,","District":"Patna","City":"Patna","NewProviderCode":"HGOX02298","RefCode":"HGIX02649","MailId":"hitechhospitalpatna@gmail.com","IsActive":true,"PMT_Member":"Ajai Saxena","Pin_Code":"801503","Hospital_Name":"Hi-Tech Emergency Hospital","Type":"OPD","Address":"Saguna More, Beiley Rd, Patna","Priority":5},{"lat":"12.9935833","lng":"77.53427","State":"Karnataka","ContactNumber":"9.90E+09","Area":"Bangalore","District":"Bangalore","City":"Bangalore","NewProviderCode":"HGOX02630","RefCode":"HGIX00169","MailId":"panaceahospitalpvtltd@gmail.com","IsActive":true,"PMT_Member":"Jaikant Cs","Pin_Code":"560079","Hospital_Name":"Panacea Hospitals Pvt Ltd","Type":"OPD","Address":"No 334, 3Rd Stage, 4Th Block Basaveshwara Nagar","Priority":5},{"lat":"13.0268976","lng":"80.22167449999999","State":"TAMIL NADU","ContactNumber":"91-8550988881","Area":"CHENNAI CITY CORPORATION","District":"CHENNAI","City":"CHENNAI CITY CORPORATION","NewProviderCode":"HGOX03073","RefCode":"0","MailId":"sdcp.rgicl@gmail.com","IsActive":true,"PMT_Member":"SIRISHA SIMHA","Pin_Code":"600015","Hospital_Name":"SECURE DENTAL CARE","Type":"OPD","Address":"Dr.Athreya Dental Clinic, No. 40 Railway Border, Second Street, Kaveri Nagar ( Near Aranganathan Subway), Saidapet,Dr.Athreya Dental Clinic, No. 40 Railway Border, Second Street, Kaveri Nagar ( Near Aranganathan Subway), Saidapet,Dr.Athreya Dental Clinic, No. 40 Railway Border, Second Street, Kaveri Nagar ( Near Aranganathan Subway), Saidapet","Priority":5},{"lat":"12.9697148","lng":"77.5379","State":"Karnataka","ContactNumber":"9.85E+09","Area":"Vijayanagar","District":"Bangalore","City":"Bangalore","NewProviderCode":"HGOX02645","RefCode":"HGIX04620","MailId":"drkmsuresh@hotmail.com","IsActive":true,"PMT_Member":"Jaikant Cs","Pin_Code":"560040","Hospital_Name":"Vidya Eye Hospital","Type":"OPD","Address":"47/E, 15Th Main, M C Road, Vijayanagar","Priority":5},{"lat":"12.9950142","lng":"77.57371","State":"Karnataka","ContactNumber":"9.74E+09","Area":"Bangalore","District":"Bangalore","City":"Bangalore","NewProviderCode":"HGOX02479","RefCode":"HGIX00195","MailId":"tpa@drsolankieyehospital.net","IsActive":true,"PMT_Member":"Jaikant Cs","Pin_Code":"560003","Hospital_Name":"Dr. Solanki Eye Pvt Ltd","Type":"OPD","Address":"# 191/1, 2nd Cross, Link Road, Malleswaram","Priority":5},{"lat":"10.022512","lng":"76.3084329","State":"KERALA","ContactNumber":"91-8550988881","Area":"KANAYANNUR","District":"ERNAKULAM","City":"KANAYANNUR","NewProviderCode":"HGOX03138","RefCode":"0","MailId":"sdcp.rgicl@gmail.com","IsActive":true,"PMT_Member":"Jincy John","Pin_Code":"682041","Hospital_Name":"SECURE DENTAL CARE","Type":"OPD","Address":"Facets Hollywood smile, Pallippatt Dew Building, 1st Floor, Behind Raha Ayurveda, Kadavil Lane, Near Lulu Mall Gate, NH-17, Edappally,Facets Hollywood smile, Pallippatt Dew Building, 1st Floor, Behind Raha Ayurveda, Kadavil Lane, Near Lulu Mall Gate, NH-17, Edappally,Facets Hollywood smile, Pallippatt Dew Building, 1st Floor, Behind Raha Ayurveda, Kadavil Lane, Near Lulu Mall Gate, NH-17, Edappally","Priority":5},{"lat":"18.5204303","lng":"73.8567437","State":"TELANGANA","ContactNumber":"91-8978924222","Area":"PUNE CITY","District":"HYDERABAD","City":"PUNE CITY","NewProviderCode":"RHIN02058","RefCode":"0","MailId":"insurance@nephroplus.com","IsActive":true,"PMT_Member":"Dr.Kirti Subhash Shinde","Pin_Code":"500034","Hospital_Name":"Nephroplus Dialysis Center","Type":"IPD","Address":"1 st floor west wing above SBI road no 2, banjara hill near jubilee check post,,","Priority":5},{"lat":"12.9568133","lng":"77.7144869","State":"KARNATAKA","ContactNumber":"91-8550988882","Area":"BANGALORE NORTH","District":"BANGALORE","City":"BANGALORE NORTH","NewProviderCode":"HGOX02807","RefCode":"0","MailId":"sdcp.rgicl@gmail.com","IsActive":true,"PMT_Member":"SURYAKANT DESHETTY","Pin_Code":"560037","Hospital_Name":"Secure Dental Care","Type":"OPD","Address":"SECURE DENTAL CARE @ All Smiles Dental Studio, No.3A, 1st Floor, Above Pavan Medicals, Brooke’s Enclave, Kundalhalli Main Road, Bangalore,SECURE DENTAL CARE @ All Smiles Dental Studio, No.3A, 1st Floor, Above Pavan Medicals, Brooke’s Enclave, Kundalhalli Main Road, Bangalore,SECURE DENTAL CARE @ All Smiles Dental Studio, No.3A, 1st Floor, Above Pavan Medicals, Brooke’s Enclave, Kundalhalli Main Road, Bangalore","Priority":5},{"lat":"26.1251741","lng":"91.6819653","State":"ASSAM","ContactNumber":"91-9127828868","Area":"GMC","District":"KAMRUP","City":"GMC","NewProviderCode":"HGIX05525","RefCode":"0","MailId":"care@eyecarehospital.org","IsActive":true,"PMT_Member":"Pankaj Narzary","Pin_Code":"781005","Hospital_Name":"Apollo Excelcare Hospital (A Unit of Asclepius Hospitals & Health Care Pvt Ltd)","Type":"IPD","Address":"NH-37, Pacshim, Boragaon, Guwahati,NH-37, Pacshim, Boragaon, Guwahati,NH-37, Pacshim, Boragaon, Guwahati","Priority":5},{"lat":"13.0270929","lng":"77.6325","State":"Karnataka","ContactNumber":"080-42177555","Area":"Horamavu","District":"Bangalore","City":"Bangalore","NewProviderCode":"HGOX02641","RefCode":"HGIX02453","MailId":"sailajaeyehospital@gmail.com","IsActive":true,"PMT_Member":"Jaikant Cs","Pin_Code":"560043","Hospital_Name":"Dr. Sailajas Super Specialty Eye Hospital","Type":"OPD","Address":"No. 21,22, 1St Floor, Above Sbm","Priority":5},{"lat":"13.026762","lng":"77.599192","State":"KARNATAKA","ContactNumber":"91-9900520357","Area":"BANGALORE","District":"BANGALORE","City":"BANGALORE","NewProviderCode":"HGIX00140","RefCode":"0","MailId":"geeta_cnh@yahoo.com","IsActive":true,"PMT_Member":"SURYAKANT DESHETTY","Pin_Code":"560032","Hospital_Name":"CHAITANYA HOSPITAL","Type":"IPD","Address":"NO 80, 3RD CROSS, P & T COLONY R T NAGAR,,","Priority":5},{"lat":"23.4008276","lng":"85.36771","State":"Jharkhand","ContactNumber":"7.07E+09","Area":"Booty Rd, Bariatu Ranchi","District":"Ranchi","City":"Ranchi","NewProviderCode":"HGOX01854","RefCode":"HGIX02641","MailId":"alam.hospital@rediffmail.com","IsActive":true,"PMT_Member":"Ajai Saxena","Pin_Code":"834009","Hospital_Name":"Alam Hospital & Research Center Pvt Ltd","Type":"OPD","Address":"Booty Rd, Bariatu Ranchi","Priority":5},{"lat":"12.9420948","lng":"77.5463577","State":"KARNATAKA","ContactNumber":"91-8550988881","Area":"BANGALORE SOUTH","District":"BANGALORE","City":"BANGALORE SOUTH","NewProviderCode":"HGOX03095","RefCode":"0","MailId":"sdcp.rgicl@gmail.com","IsActive":true,"PMT_Member":"SURYAKANT DESHETTY","Pin_Code":"560026","Hospital_Name":"SECURE DENTAL CARE","Type":"OPD","Address":"Dr.Venkatesh Dental Clinic, # 9, 50 Feet Road, 23 Main, Muneshwara Block, Girinagar,Dr.Venkatesh Dental Clinic, # 9, 50 Feet Road, 23 Main, Muneshwara Block, Girinagar,Dr.Venkatesh Dental Clinic, # 9, 50 Feet Road, 23 Main, Muneshwara Block, Girinagar","Priority":5},{"lat":"13.058589","lng":"80.2414325","State":"TAMIL NADU","ContactNumber":"91-8550988881","Area":"CHENNAI","District":"CHENNAI","City":"CHENNAI","NewProviderCode":"HGOX03087","RefCode":"0","MailId":"sdcp.rgicl@gmail.com","IsActive":true,"PMT_Member":"SIRISHA SIMHA","Pin_Code":"600034","Hospital_Name":"SECURE DENTAL CARE","Type":"OPD","Address":"Mount Multi Speciality Dental Clinic, 37/2, Jambulingam Street, Facing Valluvar Kottam High Road, Nungambakkam,Mount Multi Speciality Dental Clinic, 37/2, Jambulingam Street, Facing Valluvar Kottam High Road, Nungambakkam,Mount Multi Speciality Dental Clinic, 37/2, Jambulingam Street, Facing Valluvar Kottam High Road, Nungambakkam","Priority":5},{"lat":"23.2763044","lng":"77.3676066","State":"MADHYA PRADESH","ContactNumber":"","Area":"BHOPAL","District":"BHOPAL","City":"BHOPAL","NewProviderCode":"RHIN02342","RefCode":"0","MailId":"","IsActive":true,"PMT_Member":"Dr.Yatrik Joshi","Pin_Code":"462032","Hospital_Name":"Tripti Hospital","Type":"IPD","Address":" 175, Lalghati Square Gufa Mandir Road Lalghati Bhopal 462032 Madhya Pradesh","Priority":5},{"lat":"26.147936","lng":"91.785645","State":"ASSAM","ContactNumber":"91-8822865234","Area":"GUWAHATI","District":"KAMRUP","City":"GUWAHATI","NewProviderCode":"HGIX03526","RefCode":"0","MailId":"tgogoi393@gmail.com","IsActive":true,"PMT_Member":"Pankaj Narzary","Pin_Code":"781006","Hospital_Name":"GNRC Hospital","Type":"IPD","Address":"Super Market Dispur GHY-06,,","Priority":5},{"lat":"27.4926051","lng":"94.9292414","State":"ASSAM","ContactNumber":"91-9435391971","Area":"DIBRUGARH","District":"DIBRUGARH","City":"DIBRUGARH","NewProviderCode":"HGIX04934","RefCode":"0","MailId":"brahmaputra786005@gmail.com","IsActive":true,"PMT_Member":"Pankaj Narzary","Pin_Code":"786005","Hospital_Name":"Brahmaputra Diagnostics Hospital Ltd","Type":"IPD","Address":"Paltan Bazar,Dibrugarh,Paltan Bazar,Dibrugarh,Assam,","Priority":5},{"lat":"12.9557965","lng":"77.71271","State":"Karnataka","ContactNumber":"9.59E+09","Area":"Kundanahalli gate","District":"Bangalore","City":"Bangalore","NewProviderCode":"HGOX02648","RefCode":"HGIX04850","MailId":"blr.tpa@sankaraeye.com","IsActive":true,"PMT_Member":"Jaikant Cs","Pin_Code":"560037","Hospital_Name":"Sankara Eye Hospital","Type":"OPD","Address":"Varthur Main Road, Kundanahalli gate, Varthur","Priority":5},{"lat":"12.938333","lng":"77.610276","State":"KARNATAKA","ContactNumber":"91-9845352070","Area":"BANGALORE","District":"BANGALORE","City":"BANGALORE","NewProviderCode":"HGIX00797","RefCode":"0","MailId":"sms_n_home@hotmail.com","IsActive":true,"PMT_Member":"SURYAKANT DESHETTY","Pin_Code":"560068","Hospital_Name":"S M S NURSING HOME","Type":"IPD","Address":"321/2A, HOSUR ROAD, MADIWALA, OPP MADIWALA POLICE STATION, BANGLORE,,","Priority":5},{"lat":"26.2074584","lng":"91.67719","State":"ASSAM","ContactNumber":"91-8811077610","Area":"BEZERA","District":"KAMRUP","City":"BEZERA","NewProviderCode":"RHIN00793","RefCode":"0","MailId":"guwahati@narayanahealth.org","IsActive":true,"PMT_Member":"Pankaj Narzary","Pin_Code":"781031","Hospital_Name":"Narayana Superspeciality Hospital","Type":"IPD","Address":"Tularam Bafna, Civil Hospital Complex, Amingaon,Tularam Bafna, Civil Hospital Complex, Amingaon,Tularam Bafna, Civil Hospital Complex, Amingaon","Priority":5},{"lat":"26.6387648","lng":"92.7822395","State":"ASSAM","ContactNumber":"91-6003499364","Area":"TEZPUR","District":"SONITPUR","City":"TEZPUR","NewProviderCode":"HGIX06927","RefCode":"0","MailId":"times.hosp@gmail.com","IsActive":true,"PMT_Member":"Pankaj Narzary","Pin_Code":"784001","Hospital_Name":"TIMES HOSPITAL (TEZPUR INSTITUTE OF MEDICAL SCIENCES PVT LTD)","Type":"IPD","Address":"N.T ROAD DEURIGAON,N.T ROAD DEURIGAON,","Priority":5},{"lat":"12.9973616","lng":"77.54277","State":"Karnataka","ContactNumber":"9.85E+09","Area":"Bangalore","District":"Bangalore","City":"Bangalore","NewProviderCode":"HGOX02669","RefCode":"HGIX00583","MailId":"chordroadhospital100@yahoo.co.in","IsActive":true,"PMT_Member":"Jaikant Cs","Pin_Code":"560079","Hospital_Name":"Chord Road Hospital Private Limited","Type":"OPD","Address":"100/101, Lic Colony","Priority":5},{"lat":"20.554511","lng":"74.5250543","State":"","ContactNumber":"","Area":"","District":"","City":"","NewProviderCode":"RHIN00943","RefCode":"0","MailId":"","IsActive":true,"PMT_Member":"Dr.Kirti Subhash Shinde","Pin_Code":"422023","Hospital_Name":"Six Sigma Medicare And Reseasrch Ltd","Type":"IPD","Address":" Barirster Gopal Chandra Sankul, Opposite Lodha Market  Satana Road, Malegaon  Satana Road , Malegaon","Priority":5},{"lat":"10.9760357","lng":"76.22544309999999","State":"KERALA","ContactNumber":"91-8550988881","Area":"PERINTHALMANNA","District":"MALAPPURAM","City":"PERINTHALMANNA","NewProviderCode":"HGOX02943","RefCode":"0","MailId":"sdcp.rgicl@gmail.com","IsActive":true,"PMT_Member":"Jincy John","Pin_Code":"679338","Hospital_Name":"SECURE DENTAL CARE","Type":"OPD","Address":"V Care Multi Speciality Dental Clinic,Near Kerala Gramin Bank,Vengad (Po), Kulathur (Po)","Priority":5},{"lat":"18.4762334","lng":"73.92713580000002","State":"MAHARASHTRA","ContactNumber":"","Area":"PUNE CITY","District":"PUNE","City":"PUNE CITY","NewProviderCode":"RHIN02276","RefCode":"0","MailId":"","IsActive":true,"PMT_Member":"Dr. YOGESH SAMNERKAR","Pin_Code":"411028","Hospital_Name":"H. V. Desai Eye Hospital (A Unit Of Pbma'S)","Type":"IPD","Address":"S. R. No.93, Tarawadi Wasti, Mohamadwadi, Hadapsar","Priority":5},{"lat":"12.958663","lng":"77.593462","State":"KARNATAKA","ContactNumber":"91-8043319999","Area":"BANGALORE","District":"BANGALORE","City":"BANGALORE","NewProviderCode":"HGIX01133","RefCode":"0","MailId":"chennai@nephrolife.in","IsActive":true,"PMT_Member":"SURYAKANT DESHETTY","Pin_Code":"560027","Hospital_Name":"NEPHROLIFE CARE INDIA PVT LTD","Type":"IPD","Address":"NO 02, SETLUR STREET SHANTI NAGAR, NR PAN FURNITURE, BANGALORE,,","Priority":5},{"lat":"25.599878","lng":"85.14797","State":"Bihar","ContactNumber":"9.93E+09","Area":"Kankarbagh","District":"Patna","City":"Patna","NewProviderCode":"HGOX02481","RefCode":"HGIX02502","MailId":"rajatc69@gmail.com","IsActive":true,"PMT_Member":"Ajai Saxena","Pin_Code":"800020","Hospital_Name":"Apollo Trauma Centre","Type":"OPD","Address":"G/124, P C Colony, Main Road, Kankarbagh, Overbridge, Patna","Priority":5},{"lat":"26.1792286","lng":"91.7532732","State":"ASSAM","ContactNumber":"91-9074424806","Area":"GMC","District":"KAMRUP","City":"GMC","NewProviderCode":"HGIX06639","RefCode":"0","MailId":"guwhatipb@asgeyehospital.com","IsActive":true,"PMT_Member":"Pankaj Narzary","Pin_Code":"781008","Hospital_Name":"ASG Hospital PVT LTD","Type":"IPD","Address":"Amaze Plaza, MD Saha road, oppositeHotel Hornbill Paltan Bazar,Amaze Plaza, MD Saha road, oppositeHotel Hornbill Paltan Bazar,Amaze Plaza, MD Saha road, oppositeHotel Hornbill Paltan Bazar","Priority":5},{"lat":"10.4845391","lng":"76.2215466","State":"KERALA","ContactNumber":"91-8550988881","Area":"THRISSUR","District":"THRISSUR","City":"THRISSUR","NewProviderCode":"HGOX02967","RefCode":"0","MailId":"sdcp.rgicl@gmail.com","IsActive":true,"PMT_Member":"Jincy John","Pin_Code":"680006","Hospital_Name":"SECURE DENTAL CARE","Type":"OPD","Address":"Dent Way Dental Care, 1st Floor,Abhcon Axis Building, NH Road,Opp. Silver Sanitaries, Chiyyaram","Priority":5},{"lat":"12.925255","lng":"77.577359","State":"KARNATAKA","ContactNumber":"91-9449003770","Area":"BANGALORE","District":"BANGALORE","City":"BANGALORE","NewProviderCode":"HGIX00308","RefCode":"0","MailId":"pr@nethradhama.org","IsActive":true,"PMT_Member":"SURYAKANT DESHETTY","Pin_Code":"560082","Hospital_Name":"NETHRADHAMA HOSPITAL PRIVATE LIMITED","Type":"IPD","Address":"#256/14, KANAKAPURA MAIN ROAD,7TH BLOCK, JAYANAGAR,","Priority":5},{"lat":"12.9306315","lng":"77.54132","State":"Karnataka","ContactNumber":"9.45E+09","Area":"Banashankari","District":"Bangalore","City":"Bangalore","NewProviderCode":"HGOX02690","RefCode":"HGIX04650","MailId":"suma@viio.org","IsActive":true,"PMT_Member":"Jaikant Cs","Pin_Code":"560085","Hospital_Name":"Vittala International Institute Of Ophthalmology","Type":"OPD","Address":"C.A. Site No. 1, 2Nd Cross, 2Nd Main, 7Th Block, Banashankari, 3Rd Stage, Hosakerehalli","Priority":5},{"lat":"15.8748","lng":"74.525455","State":"KARNATAKA","ContactNumber":"91-9731927284","Area":"BELGAUM","District":"BELGAUM","City":"BELGAUM","NewProviderCode":"HGIX00829","RefCode":"0","MailId":"bch_belgaum@rediffmail.com","IsActive":true,"PMT_Member":"SURYAKANT DESHETTY","Pin_Code":"590010","Hospital_Name":"BELGAUM CANCER HOSPITAL PVT LTD","Type":"IPD","Address":"#9666A-2/D, ASHOK NAGAR, BELGAUM, KARNATAKA,,","Priority":5},{"lat":"26.1138825","lng":"91.8354748","State":"ASSAM","ContactNumber":"91-9864748572","Area":"GMC","District":"KAMRUP","City":"GMC","NewProviderCode":"RHIN00454","RefCode":"0","MailId":"cashlesshealthcity@gmail.com","IsActive":true,"PMT_Member":"Pankaj Narzary","Pin_Code":"781022","Hospital_Name":"Health City,Guwahati (A Unit Of North East Health City Pvt. Ltd)","Type":"IPD","Address":"Health City,Guwahati (A Unit Of North East Health City Pvt. Ltd) Nh-37 Koinadhara, Khanapara Guwahati,,","Priority":5},{"lat":"18.7642061","lng":"73.8615404","State":"MAHARASHTRA","ContactNumber":"91-9890969016","Area":"KHED","District":"PUNE","City":"KHED","NewProviderCode":"HGIX06110","RefCode":"0","MailId":"salunkemhospital@gmail.com","IsActive":true,"PMT_Member":"Dr.Kirti Subhash Shinde","Pin_Code":"410505","Hospital_Name":"SALUNKE MULTISPECIALITY HOSPITAL","Type":"IPD","Address":"Opp.RajguruNagar Sahakari Bank Pune-Nashik Highway Rajgurunagar,Khed,Opp.RajguruNagar Sahakari Bank Pune-Nashik Highway Rajgurunagar,Khed,Opp.RajguruNagar Sahakari Bank Pune-Nashik Highway Rajgurunagar,Khed","Priority":5},{"lat":"12.987368","lng":"77.581009","State":"KARNATAKA","ContactNumber":"91-9844075372","Area":"BANGALORE","District":"BANGALORE","City":"BANGALORE","NewProviderCode":"HGIX00906","RefCode":"0","MailId":"shridhar.hombal@yahoo.com","IsActive":true,"PMT_Member":"SURYAKANT DESHETTY","Pin_Code":"560001","Hospital_Name":"HITECH KIDNEY STONE HOSPITAL","Type":"IPD","Address":"H.O. 6/7,CRESCENT ROAD CROSS, KUMAR PARK EAST, BEHIND SINDHI HIGH SCHOOL,,","Priority":5},{"lat":"12.28636","lng":"76.64044","State":"KARNATAKA","ContactNumber":"91-9448491511","Area":"MYSORE","District":"MYSORE","City":"MYSORE","NewProviderCode":"HGIX01427","RefCode":"0","MailId":"sushruthaeyehospital@yahoo.co.in","IsActive":true,"PMT_Member":"SURYAKANT DESHETTY","Pin_Code":"570024","Hospital_Name":"Sushrutha Eye Hospital","Type":"IPD","Address":"313, Deewans Rd, Beside Marimallappa College, Mysore,,","Priority":5},{"lat":"13.0943104","lng":"77.58065","State":"Karnataka","ContactNumber":"7.76E+09","Area":"Yelahanka","District":"Bangalore","City":"Bangalore","NewProviderCode":"HGOX01789","RefCode":"HGIX01246","MailId":"NA","IsActive":true,"PMT_Member":"Jaikant Cs","Pin_Code":"560064","Hospital_Name":"Dr. Agarwals Eye Hospital","Type":"OPD","Address":"Hig-2557, Sector B 3Rd Stage, Yelahanka","Priority":5},{"lat":"22.4555447","lng":"88.30389","State":"West Bengal","ContactNumber":"9.05E+09","Area":"Post Joka","District":"Kolkata","City":"Kolkata","NewProviderCode":"HGOX02306","RefCode":"HGIX01539","MailId":"kmrh.joka@gmail.com","IsActive":true,"PMT_Member":"Ajai Saxena","Pin_Code":"700104","Hospital_Name":"Kasturi Medical Research Centre Pvt Ltd","Type":"OPD","Address":"Diamond Harbour Rd, 3A, Bus Stand, Post Joka , 24 Parganans","Priority":5},{"lat":"13.3361647","lng":"74.75046","State":"Karnataka","ContactNumber":"8.11E+09","Area":"Udupi","District":"Udupi","City":"Udupi","NewProviderCode":"HGOX02663","RefCode":"HGIX00154","MailId":"mitra@mitrahospital.com","IsActive":true,"PMT_Member":"Jaikant Cs","Pin_Code":"576101","Hospital_Name":"Mitra Hospital","Type":"OPD","Address":"Mitra Priya Nr Kalpana Theatre","Priority":5},{"lat":"26.1540181","lng":"91.78123269999999","State":"ASSAM","ContactNumber":"91-9864068198","Area":"GUWAHATI","District":"KAMRUP","City":"GUWAHATI","NewProviderCode":"RHIN00507","RefCode":"0","MailId":"tpadesk@apollohospitalsguwahati.com","IsActive":true,"PMT_Member":"Pankaj Narzary","Pin_Code":"781005","Hospital_Name":"Apollo Hospitals","Type":"IPD","Address":"Lotus Tower G S Road Christian Basti Guwahati,Lotus Tower G S Road Christian Basti Guwahati,Lotus Tower G S Road Christian Basti Guwahati","Priority":5},{"lat":"12.871051","lng":"77.710869","State":"KARNATAKA","ContactNumber":"91-9538895213","Area":"BANGALORE","District":"BANGALORE","City":"BANGALORE","NewProviderCode":"HGIX00535","RefCode":"0","MailId":"admissions@narayanahealth.org","IsActive":true,"PMT_Member":"SURYAKANT DESHETTY","Pin_Code":"560099","Hospital_Name":"Narayana Hrudayalaya Hospital & Health City","Type":"IPD","Address":"No. 258/A, Bommasandra Industrial Area, Anekat Taluk, Bangalore,,","Priority":5},{"lat":"12.983414","lng":"80.1276275","State":"TAMIL NADU","ContactNumber":"91-8550988881","Area":"KANCHIPURAM","District":"KANCHIPURAM","City":"KANCHIPURAM","NewProviderCode":"HGOX02974","RefCode":"0","MailId":"sdcp.rgicl@gmail.com","IsActive":true,"PMT_Member":"SIRISHA SIMHA","Pin_Code":"600070","Hospital_Name":"SECURE DENTAL CARE","Type":"OPD","Address":"Dr.Manoj Dental Clinic, No.39, 1st Floor, Saravana Complex, JN Road, Anakaputhur,Dr.Manoj Dental Clinic, No.39, 1st Floor, Saravana Complex, JN Road, Anakaputhur,","Priority":5},{"lat":"11.6641123","lng":"92.74689819999999","State":"ANDAMAN AND NICOBAR ISLANDS","ContactNumber":"91-9932080062","Area":"PORT  BLAIR","District":"SOUTH ANDAMAN","City":"PORT  BLAIR","NewProviderCode":"RHIN01918","RefCode":"0","MailId":"andaman@dragarwal.com","IsActive":true,"PMT_Member":"Sudhakar T","Pin_Code":"744104","Hospital_Name":"Dr.Agarwal'S Health Care Ltd","Type":"IPD","Address":"Survey No.: 32/4, Rgt Road, Port Blair,,","Priority":5},{"lat":"12.9972856","lng":"77.61435259999999","State":"KARNATAKA","ContactNumber":"91-8550988881","Area":"BANGALORE NORTH","District":"BANGALORE","City":"BANGALORE NORTH","NewProviderCode":"HGOX02939","RefCode":"0","MailId":"sdcp.rgicl@gmail.com","IsActive":true,"PMT_Member":"SURYAKANT DESHETTY","Pin_Code":"560005","Hospital_Name":"SECURE DENTAL CARE","Type":"OPD","Address":"Dental Destination, #12/2,1st Floor, Mosque Road,,Opp.Super Market, Frazer Town","Priority":5},{"lat":"14.4429685","lng":"75.9279715","State":"KARNATAKA","ContactNumber":"91-8550988881","Area":"DAVANGERE","District":"DAVANGERE","City":"DAVANGERE","NewProviderCode":"HGOX03024","RefCode":"0","MailId":"sdcp.rgicl@gmail.com","IsActive":true,"PMT_Member":"SURYAKANT DESHETTY","Pin_Code":"577001","Hospital_Name":"SECURE DENTAL CARE","Type":"OPD","Address":"Dr.Sreenivasa Dentakl Clinic,Shop No.7, Sri Durgambika School Complex,Madakari Nayaka Circle","Priority":5},{"lat":"9.3845214","lng":"76.5877774","State":"KERALA","ContactNumber":"0","Area":"NA","District":"PATHANAMTHITTA","City":"THIRUVALLA","NewProviderCode":"RHIN04857","RefCode":"0","MailId":"info.tvla@chaithanya.org","IsActive":true,"PMT_Member":"Jincy John","Pin_Code":"689105","Hospital_Name":"Chaithanya Eye Hospital & Research Institute","Type":"IPD","Address":"J Complex, Manjadi, Thiruvalla,J Complex, Manjadi, Thiruvalla,J Complex, Manjadi, Thiruvalla","Priority":5},{"lat":"12.970898","lng":"77.50951","State":"KARNATAKA","ContactNumber":"91-9900589501","Area":"BANGALORE","District":"BANGALORE","City":"BANGALORE","NewProviderCode":"HGIX01050","RefCode":"0","MailId":"insurance@gmhospitals.in","IsActive":true,"PMT_Member":"SURYAKANT DESHETTY","Pin_Code":"560072","Hospital_Name":"PANACEA HOSPITAL - NAGARBHAVI (A UNIT OF PAN NAGARBHAVI HOSPITAL PVT. LTD.)","Type":"IPD","Address":"# 611, 612, Nagarbhavi Main Road, II Stage, Vinayaka Layout, Nagarbhavi, Bangalore,,","Priority":5},{"lat":"12.954113","lng":"77.61638","State":"KARNATAKA","ContactNumber":"91-8040164300","Area":"BANGALORE","District":"BANGALORE","City":"BANGALORE","NewProviderCode":"HGIX01986","RefCode":"0","MailId":"stphilomenashospital@gmail.com","IsActive":true,"PMT_Member":"SURYAKANT DESHETTY","Pin_Code":"560047","Hospital_Name":"St. Philomenas Hospital","Type":"IPD","Address":"No.4, Campbell Road, Viveknagar,,","Priority":5},{"lat":"12.951622","lng":"77.591794","State":"KARNATAKA","ContactNumber":"91-8022533467","Area":"BANGALORE","District":"BANGALORE","City":"BANGALORE","NewProviderCode":"HGIX01755","RefCode":"0","MailId":"agadihospital@hotmail.com","IsActive":true,"PMT_Member":"SURYAKANT DESHETTY","Pin_Code":"560027","Hospital_Name":"Agadi Hospital & Research Centre","Type":"IPD","Address":"No.35, H. Siddaiah Rd, Wilson Garden,,","Priority":5},{"lat":"10.0283657","lng":"76.311298","State":"KERALA","ContactNumber":"0","Area":"","District":"ERNAKULAM","City":"ERNAKULAM","NewProviderCode":"RHIN04796","RefCode":"0","MailId":"edappally@giridhareye.org","IsActive":true,"PMT_Member":"Jincy John","Pin_Code":"682024","Hospital_Name":"Giridhar Eye Institute","Type":"IPD","Address":"Door No.33/195-C, Vam Arcade,2Nd Floor, Edappally Toll Junction,,","Priority":5},{"lat":"17.4353661","lng":"78.4458032","State":"TELANGANA","ContactNumber":"91-8867994141","Area":"HYDERABAD","District":"HYDERABAD","City":"HYDERABAD","NewProviderCode":"COVID002","RefCode":"0","MailId":"sonia.verma@apolloclinic.com","IsActive":true,"PMT_Member":"Ponnam Satish Kumar","Pin_Code":"500038","Hospital_Name":"Apollo Health And Lifestyle Limited","Type":"IPD","Address":"# 7-1-617A, 615, 616, 7th Floor,Imperial Towers Opp.Ameerpet Metro,","Priority":5},{"lat":"13.0920043","lng":"80.2793205","State":"TAMIL NADU","ContactNumber":"00-0000000000","Area":"CHENNAI","District":"CHENNAI","City":"CHENNAI","NewProviderCode":"HGIX03706","RefCode":"0","MailId":"apollocitycentre@apollohospitals.com","IsActive":true,"PMT_Member":"SIRISHA SIMHA","Pin_Code":"600079","Hospital_Name":"Apollo City centre Hospital","Type":"IPD","Address":"134, Mint street Sowcarpet,,","Priority":5},{"lat":"27.1268745","lng":"94.7400419","State":"ASSAM","ContactNumber":"91-9127826826","Area":"SIVASAGAR","District":"SIVASAGAR","City":"SIVASAGAR","NewProviderCode":"HGIX07730","RefCode":"0","MailId":"manageroperation@medicitysibsayar.org","IsActive":true,"PMT_Member":"Pankaj Narzary","Pin_Code":"785672","Hospital_Name":"Swargadew Siu-Ka-Pha Multispeciality Hospital","Type":"IPD","Address":"Demow Rajabari Sivasagar,Demow Rajabari Sivasagar,Demow Rajabari Sivasagar","Priority":5},{"lat":"26.0929477","lng":"91.53775","State":"Assam","ContactNumber":"8550988881 / 8550988882","Area":"Sarma Complex, Near LIC Building","District":"Kamrup","City":"Mirza-Guwahati","NewProviderCode":"HGOX02766","RefCode":"Fresh Empanelment","MailId":"sdcp.rgicl@gmail.com","IsActive":true,"PMT_Member":"Ajai Saxena","Pin_Code":"781125","Hospital_Name":"Secure Dental Care","Type":"OPD","Address":"Gupta Dental Clinic, 1st Floor. Sarma Complex, Near LIC Building","Priority":5},{"lat":"9.7948638","lng":"76.3548328","State":"KERALA","ContactNumber":"91-9633059414","Area":"CHERTHALA","District":"ALAPPUZHA","City":"CHERTHALA","NewProviderCode":"MSEP00023","RefCode":"0","MailId":"hospitalpmc@gmail.com","IsActive":true,"PMT_Member":"Jincy John","Pin_Code":"688526","Hospital_Name":"Poochakkal Medical Centre","Type":"IPD","Address":"XII/29, 29A, Poochakkal P.O., Cherthala, Alappuzha,XII/29, 29A, Poochakkal P.O., Cherthala, Alappuzha,XII/29, 29A, Poochakkal P.O., Cherthala, Alappuzha","Priority":5},{"lat":"10.0333045","lng":"76.3251998","State":"KERALA","ContactNumber":"91-8005764898","Area":"KANAYANNUR","District":"ERNAKULAM","City":"KANAYANNUR","NewProviderCode":"HGOX04498","RefCode":"0","MailId":"business@mydentalplan.in","IsActive":true,"PMT_Member":"Jincy John","Pin_Code":"682021","Hospital_Name":"Reedent Dental and Skin Cosmetic Clinic","Type":"OPD","Address":"M.S. Arcade, Pipeline Junction, Near Cochin Public School, Pukkatupady Road, Thrikkakara,M.S. Arcade, Pipeline Junction, Near Cochin Public School, Pukkatupady Road, Thrikkakara,M.S. Arcade, Pipeline Junction, Near Cochin Public School, Pukkatupady Road, Thrikkakara","Priority":5},{"lat":"8.5114784","lng":"76.9630085","State":"KERALA","ContactNumber":"91-0000000000","Area":"THIRUVANANTHAPURAM","District":"THIRUVANANTHAPURAM","City":"THIRUVANANTHAPURAM","NewProviderCode":"RHIN01919","RefCode":"0","MailId":"trivandrum@dragarwal.com","IsActive":true,"PMT_Member":"Jincy John","Pin_Code":"695010","Hospital_Name":"Dr.Agarwal'S Health Care Ltd","Type":"IPD","Address":".C No: 29/104 (2) Leelaram Building, Diamaond Hill, Vellayambalam, Thiruvananthapuram, Kerala-695010,,","Priority":5},{"lat":"13.079069","lng":"80.256453","State":"TAMIL NADU","ContactNumber":"91-4426413420","Area":"CHENNAI","District":"CHENNAI","City":"CHENNAI","NewProviderCode":"HGIX00594","RefCode":"0","MailId":"insurance@guesthospital.com","IsActive":true,"PMT_Member":"SIRISHA SIMHA","Pin_Code":"600010","Hospital_Name":"THE GUEST HOSPITAL","Type":"IPD","Address":"372 POONAMALLEE HIGH ROAD KILPAUK ,CHENNAI,,","Priority":5},{"lat":"25.5664121","lng":"91.8919701","State":"MEGHALAYA","ContactNumber":"91-7005629499","Area":"SHILLONG","District":"SHILLONG","City":"SHILLONG","NewProviderCode":"HGIX05255","RefCode":"0","MailId":"woodlandhospital@hotmail.com","IsActive":true,"PMT_Member":"Pankaj Narzary","Pin_Code":"793003","Hospital_Name":"Woodland Hospital","Type":"IPD","Address":"Dhankheti,Shillong,","Priority":5},{"lat":"18.4777297","lng":"73.82393","State":"Maharashtra","ContactNumber":"9.82E+09","Area":"Anand Nagar, Sinhagad Road","District":"Pune","City":"Pune","NewProviderCode":"HGOX02685","RefCode":"HGIX04092","MailId":"pharandev@gmail.com","IsActive":true,"PMT_Member":"Yogesh Samnerkar","Pin_Code":"411051","Hospital_Name":"Pharande Eye Hospital And Phacho Centre","Type":"OPD","Address":"First Sloor, Anant Apartment, Nr. Santosh Hall, Anand Nagar Sinhagad","Priority":5},{"lat":"13.0078085","lng":"80.20753429999999","State":"TAMIL NADU","ContactNumber":"91-8550988881","Area":"NANGANALLUR","District":"CHENNAI","City":"NANGANALLUR","NewProviderCode":"HGOX03094","RefCode":"0","MailId":"sdcp.rgicl@gmail.com","IsActive":true,"PMT_Member":"SIRISHA SIMHA","Pin_Code":"600061","Hospital_Name":"SECURE DENTAL CARE","Type":"OPD","Address":"Dr.Veeraragavan Dental Clinic, 20/33, Anna Salai, Ullagaram, Nanganallur,Dr.Veeraragavan Dental Clinic, 20/33, Anna Salai, Ullagaram, Nanganallur,Dr.Veeraragavan Dental Clinic, 20/33, Anna Salai, Ullagaram, Nanganallur","Priority":5},{"lat":"23.2436838","lng":"77.4730653","State":"MADHYA PRADESH","ContactNumber":"","Area":"BHOPAL","District":"BHOPAL","City":"BHOPAL","NewProviderCode":"RHIN03355","RefCode":"0","MailId":"","IsActive":true,"PMT_Member":"Dr.Yatrik Joshi","Pin_Code":"462021","Hospital_Name":"Vaishno Hospital","Type":"IPD","Address":"House Num 2,Sonpura,Khajurikalan,Piplani","Priority":5},{"lat":"18.5761627","lng":"73.82041","State":"Maharashtra","ContactNumber":"020-27280278/1175","Area":"Pune","District":"Pune","City":"Pune","NewProviderCode":"HGOX00039","RefCode":"HGIX01064","MailId":"null","IsActive":true,"PMT_Member":"Yogesh Samnerkar","Pin_Code":"411027","Hospital_Name":"Dr. Makan Surgical Maternity & Accident Hospital","Type":"OPD","Address":"Ganganagar Sangavi, Opp. Pwd Quarters","Priority":5},{"lat":"12.9974553","lng":"77.54439","State":"Karnataka","ContactNumber":"7.76E+09","Area":"Basaveshwar Nagar","District":"Bangalore","City":"Bangalore","NewProviderCode":"HGOX01787","RefCode":"HGIX01242","MailId":"NA","IsActive":true,"PMT_Member":"Jaikant Cs","Pin_Code":"560079","Hospital_Name":"Dr. Agarwals Eye Hospital","Type":"OPD","Address":"Kade Complex, No. 869, 2Nd Stage, Wcr,Basaveshwaranagar","Priority":5},{"lat":"9.1764618","lng":"76.56384419999999","State":"KERALA","ContactNumber":"91-8005764898","Area":"COCHIN","District":"COCHIN","City":"COCHIN","NewProviderCode":"HGOX03851","RefCode":"0","MailId":"business@mydentalplan.in","IsActive":true,"PMT_Member":"Jincy John","Pin_Code":"690503","Hospital_Name":"Family Dental Clinic","Type":"OPD","Address":"Kattanam, Pallickal P.O kayamkulam, Alappuzha dist,Kattanam, Pallickal P.O kayamkulam, Alappuzha dist,Kattanam, Pallickal P.O kayamkulam, Alappuzha dist","Priority":5},{"lat":"19.1289618","lng":"74.9713436","State":"MAHARASHTRA","ContactNumber":"91-8847731240","Area":"AHMADNAGAR","District":"AHMEDNAGAR","City":"AHMADNAGAR","NewProviderCode":"HGIX07037","RefCode":"0","MailId":"pandithospitalang2020@gmail.com","IsActive":true,"PMT_Member":"Dr.Kirti Subhash Shinde","Pin_Code":"414002","Hospital_Name":"Pandit Hospital","Type":"IPD","Address":"Nagar PAthardi Road, Near Bhingar High School, Bhingar , Ahmednagar, Maharashtra 414002,Nagar PAthardi Road, Near Bhingar High School, Bhingar , Ahmednagar, Maharashtra 414002,Nagar PAthardi Road, Near Bhingar High School, Bhingar , Ahmednagar, Maharashtra 414002","Priority":5},{"lat":"12.9254199","lng":"77.59184900000001","State":"KARNATAKA","ContactNumber":"91-8550988881","Area":"BANGALORE SOUTH","District":"BANGALORE","City":"BANGALORE SOUTH","NewProviderCode":"HGOX02948","RefCode":"0","MailId":"sdcp.rgicl@gmail.com","IsActive":true,"PMT_Member":"SURYAKANT DESHETTY","Pin_Code":"560041","Hospital_Name":"SECURE DENTAL CARE","Type":"OPD","Address":"Dr.Mudasseer Dental Clinic, 343/1, 1st Floor, 32 E Cross, Jayanagar,,4th T Block, Sanjay Gandhi Hospital Road, Next To MRF Tyre Showroom, Near Rajiv Gandhi University,","Priority":5},{"lat":"12.9932674","lng":"77.704454","State":"KARNATAKA","ContactNumber":"91-9538076688","Area":"BANGALORE","District":"BANGALORE","City":"BANGALORE","NewProviderCode":"HGIX04418","RefCode":"0","MailId":"melvin.kumar@nhhospitals.org","IsActive":true,"PMT_Member":"Shrikanth M R","Pin_Code":"560048","Hospital_Name":"Narayana Multispeciality Hospital","Type":"Both","Address":"Plot n 3 & 4, whitefield main,road, Sadaramangala Industrial area,","Priority":5},{"lat":"24.8520388","lng":"93.98465379999999","State":"MANIPUR","ContactNumber":"91-6009307876","Area":"IMPHAL EAST","District":"IMPHAL EAST","City":"IMPHAL EAST","NewProviderCode":"HGIX06954","RefCode":"0","MailId":"insuranceimphal@americanoncology.com","IsActive":true,"PMT_Member":"Pankaj Narzary","Pin_Code":"795010","Hospital_Name":"American Oncology Institute","Type":"IPD","Address":"AT Babina Speciality Hospital Sajiwa Jail Road,AT Babina Speciality Hospital Sajiwa Jail Road,AT Babina Speciality Hospital Sajiwa Jail Road","Priority":5},{"lat":"11.4478473","lng":"75.6887003","State":"KERALA","ContactNumber":"91-8005764898","Area":"KOYILANDI","District":"KOZHIKODE","City":"KOYILANDI","NewProviderCode":"HGOX04469","RefCode":"0","MailId":"business@mydentalplan.in","IsActive":true,"PMT_Member":"Jincy John","Pin_Code":"673305","Hospital_Name":"Javadent Dental Clinic","Type":"OPD","Address":"Above ICICI bank Koyilandy,Above ICICI bank Koyilandy,Above ICICI bank Koyilandy","Priority":5},{"lat":"19.2318238","lng":"73.13643569999999","State":"MAHARASHTRA","ContactNumber":"91-0000000000","Area":"KALYAN","District":"THANE","City":"KALYAN","NewProviderCode":"RHIN01757","RefCode":"0","MailId":"pavanhospitalinsurance@gmail.com","IsActive":true,"PMT_Member":"Shrikanth M R","Pin_Code":"421306","Hospital_Name":"Balaji Hospital","Type":"IPD","Address":"Sai Dham Apartment, Ground, 1St And 2Nd Floor Katemanivali Naka, Kolsewadi, Near Ideal English School Kalyan Thane Maharashtra 421306,,","Priority":5},{"lat":"0","lng":"0","State":"KARNATAKA","ContactNumber":"91-9449815763","Area":"BANGALORE","District":"BANGALORE","City":"BANGALORE","NewProviderCode":"HGIX00992","RefCode":"0","MailId":"girishkumar.girishkumar44@gmail.com","IsActive":true,"PMT_Member":"SURYAKANT DESHETTY","Pin_Code":"562110","Hospital_Name":"NEW MANASA HOSPITAL","Type":"IPD","Address":"G CHANDRANNA BUILDING BUILDING, NEAR OLD BUS STOP , DEVANAHALLI,,","Priority":5},{"lat":"12.9165947","lng":"77.59795","State":"Karnataka","ContactNumber":"9.98E+09","Area":"Bangalore","District":"Bangalore","City":"Bangalore","NewProviderCode":"HGOX02478","RefCode":"HGIX00079","MailId":"md@shekarnethralaya.com,shekarnethralaya1234@gmail.com,md@shekarnethralaya.com,shekarnethralaya1234@gmail.com","IsActive":true,"PMT_Member":"Jaikant Cs","Pin_Code":"560078","Hospital_Name":"Shekar Eye Hospital ( a unit of Varasiddi Hospitals)","Type":"OPD","Address":"633,100Ft Ring Road,Jp Nagar,3Rd Phase,Bangalore","Priority":5},{"lat":"26.1391639","lng":"91.7993515","State":"ASSAM","ContactNumber":"91-8811001300","Area":"GUWAHATI","District":"KAMRUP","City":"GUWAHATI","NewProviderCode":"HGIX03304","RefCode":"0","MailId":"amitabh.ghosh@ayursundra.in","IsActive":true,"PMT_Member":"Pankaj Narzary","Pin_Code":"781006","Hospital_Name":"Ayusundra Advanced Cardiac Centre","Type":"IPD","Address":"Down Town Hospital Complex, Building No.3, Dispur,,","Priority":5},{"lat":"12.9660833","lng":"77.5928149","State":"KARNATAKA","ContactNumber":"91-8550988881","Area":"BANGALORE SOUTH","District":"BANGALORE","City":"BANGALORE SOUTH","NewProviderCode":"HGOX02946","RefCode":"0","MailId":"sdcp.rgicl@gmail.com","IsActive":true,"PMT_Member":"SURYAKANT DESHETTY","Pin_Code":"560070","Hospital_Name":"SECURE DENTAL CARE","Type":"OPD","Address":"Dr.Nagaraj Dental Clinic,511/47, 8th Cross 7th Block,,West Jayanagar","Priority":5},{"lat":"20.0416779","lng":"73.805","State":"Maharashtra","ContactNumber":"9.82E+09","Area":"Sneha Nagar","District":"Nashik","City":"Nashik","NewProviderCode":"HGOX01997","RefCode":"HGIX05035","MailId":"synergyhospitalnsk@gmail.com","IsActive":true,"PMT_Member":"Yogesh Samnerkar","Pin_Code":"422004","Hospital_Name":"Synergy Hospital & Research Centre","Type":"OPD","Address":"Wagulde Plaza, Geeta Nagar Bus Stop, Dindori Road","Priority":5},{"lat":"22.4875554","lng":"88.18699","State":"West Bengal","ContactNumber":"9.83E+09","Area":"Budge Budge","District":"24 Pgs (South)","City":"Kolkata","NewProviderCode":"HGOX02642","RefCode":"HGIX02868","MailId":"arti.nhdc@gmail.com","IsActive":true,"PMT_Member":"Ajai Saxena","Pin_Code":"700137","Hospital_Name":"Arati Nursing Home & Diagnostic Cetre","Type":"OPD","Address":"539, M.G. Road, Budge Budge (Chowrasta)","Priority":5},{"lat":"12.3003225","lng":"76.62393","State":"KARNATAKA","ContactNumber":"9.66E+09","Area":"null","District":"MYSORE","City":"MYSORE","NewProviderCode":"RHIN03316","RefCode":"0","MailId":"sigmahospital.tpa@gmail.com","IsActive":true,"PMT_Member":"Shrikanth M R","Pin_Code":"570009","Hospital_Name":"Sigma Hospital","Type":"IPD","Address":"#P/8D Saraswathipuram,Thonachikoppal,Mysore,,","Priority":5},{"lat":"15.360208","lng":"75.1116157","State":"KARNATAKA","ContactNumber":"91-7899842819","Area":"HUBLI","District":"DHARWAD","City":"HUBLI","NewProviderCode":"RHIN02909","RefCode":"0","MailId":"insurance.hubli@moonmaternity.in","IsActive":true,"PMT_Member":"SURYAKANT DESHETTY","Pin_Code":"580021","Hospital_Name":"Moon Maternity","Type":"IPD","Address":"Ground Floor, Akshay Plaza, Near Chetana College, Akshay Colony, 4Th Phase, Vidya Nagar,,","Priority":5},{"lat":"17.389563","lng":"78.526331","State":"TELANGANA","ContactNumber":"91-8897594934","Area":"HYDERABAD","District":"HYDERABAD","City":"HYDERABAD","NewProviderCode":"HGIX00816","RefCode":"0","MailId":"matrixhospital@hotmail.com","IsActive":true,"PMT_Member":"SURYAKANT DESHETTY","Pin_Code":"500013","Hospital_Name":"MATRIX HOSPITAL ( A UNIT OF SADGURU VIJAYA HOSPITAL PVT. LTD.)","Type":"IPD","Address":"plot No. 4, 5, 14 & 15, PRAGATHI NAGAR, RAMANTHAPUR LAKE,,","Priority":5},{"lat":"10.9075513","lng":"79.84648039999999","State":"PUDUCHERRY U T","ContactNumber":"91-8550988881","Area":"KARAIKAL","District":"KARAIKAL","City":"KARAIKAL","NewProviderCode":"HGOX02955","RefCode":"0","MailId":"sdcp.rgicl@gmail.com","IsActive":true,"PMT_Member":"SIRISHA SIMHA","Pin_Code":"609602","Hospital_Name":"SECURE DENTAL CARE","Type":"OPD","Address":"Dr.Sathish Dental Clinic,No.2, Singaravelar Salai,","Priority":5},{"lat":"13.081756","lng":"77.54093","State":"Karnataka","ContactNumber":"9.90E+09","Area":"Singapura Main Road","District":"Bangalore","City":"Bangalore","NewProviderCode":"HGOX00707","RefCode":"HGIX04785","MailId":"info@avekshahospital.com","IsActive":true,"PMT_Member":"Jaikant Cs","Pin_Code":"560097","Hospital_Name":"Aveksha Hospital (A Unit Of Aarogya Health Care Services)","Type":"OPD","Address":"#122, Varadarajaswamy Layout, Singapura Main Road, Near M.S.Palya, Banglore","Priority":5},{"lat":"23.867536","lng":"91.289606","State":"TRIPURA","ContactNumber":"91-8974050382","Area":"AGARTALA","District":"AGARTALA","City":"AGARTALA","NewProviderCode":"HGIX04858","RefCode":"0","MailId":"billing.ils@gptgroup.co.in","IsActive":true,"PMT_Member":"Pankaj Narzary","Pin_Code":"799010","Hospital_Name":"ILS Hospitals  Agartala","Type":"IPD","Address":"Capital Complex,Extension,PO New Secretariat","Priority":5},{"lat":"18.4327748","lng":"73.1532617","State":"MAHARASHTRA","ContactNumber":"91-9423380450","Area":"ROHA","District":"RAIGARH","City":"ROHA","NewProviderCode":"HGIX05248","RefCode":"0","MailId":"drashokjadhav8000@rediffmail.com","IsActive":true,"PMT_Member":"Dr.Sachin Mahajan","Pin_Code":"402116","Hospital_Name":"Dr.Jadhav Nursing Home & ICU","Type":"IPD","Address":"Roha-Kolad Road,Trimurtinagar,","Priority":5},{"lat":"10.8690879","lng":"76.18810040000001","State":"KERALA","ContactNumber":"91-8550988881","Area":"OTTAPPALAM","District":"PALAKKAD","City":"OTTAPPALAM","NewProviderCode":"HGOX02961","RefCode":"0","MailId":"sdcp.rgicl@gmail.com","IsActive":true,"PMT_Member":"Jincy John","Pin_Code":"679308","Hospital_Name":"SECURE DENTAL CARE","Type":"OPD","Address":"Karunya Dental Clinic And Implant Centre,Opp. Govt Hospital,Koppam-Perinthalmanna Road Via Pattambi, Koppam","Priority":5},{"lat":"10.0478914","lng":"76.3181664","State":"KERALA","ContactNumber":"91-8005764898","Area":"KOCHI","District":"ERNAKULAM","City":"KOCHI","NewProviderCode":"HGOX03855","RefCode":"0","MailId":"business@mydentalplan.in","IsActive":true,"PMT_Member":"Jincy John","Pin_Code":"682033","Hospital_Name":"JJ DENTAL CARE","Type":"OPD","Address":"JJ DENTAL CARE CUSAT JUNCTION SOUTH KALAMASSERY,JJ DENTAL CARE CUSAT JUNCTION SOUTH KALAMASSERY,JJ DENTAL CARE CUSAT JUNCTION SOUTH KALAMASSERY","Priority":5},{"lat":"26.7317642","lng":"88.39433","State":"West Bengal","ContactNumber":"9.73E+09","Area":"Mati Agara","District":"Darjeeling","City":"Siliguri","NewProviderCode":"HGOX01857","RefCode":"HGIX03207","MailId":"corporate.slg@neotiahealthcare.com","IsActive":true,"PMT_Member":"Ajai Saxena","Pin_Code":"734010","Hospital_Name":"Neotia Getwel Health care","Type":"OPD","Address":"Uttorayon Mati Gara, Siliguri","Priority":5},{"lat":"22.5669827","lng":"88.39246","State":"West Bengal","ContactNumber":"NA","Area":"Beliaghata","District":"Kolkata","City":"Kolkata","NewProviderCode":"HGOX02045","RefCode":"HGIX01350","MailId":"divinemediclaim@gmail.com","IsActive":true,"PMT_Member":"Ajai Saxena","Pin_Code":"700010","Hospital_Name":"Divine Nursing Home Pvt Ltd","Type":"OPD","Address":"11-A, Abinash Chandra Banerjee Lane, Beliaghata, Kolkata","Priority":5},{"lat":"22.5111088","lng":"88.34985","State":"West Bengal","ContactNumber":"9.83E+09","Area":"Rabindra Sarabor","District":"Kolkata","City":"Kolkata","NewProviderCode":"HGOX02677","RefCode":"HGIX02123","MailId":"mohanclinic@gmail.com","IsActive":true,"PMT_Member":"Ajai Saxena","Pin_Code":"700029","Hospital_Name":"Mohan Clinic","Type":"OPD","Address":"46, Lake Temple Road, Lake Temple Road, Rabindra Sarabor Area","Priority":5},{"lat":"8.4698623","lng":"76.9554858","State":"KERALA","ContactNumber":"8289960423","Area":"NA","District":"THIRUVANANTHAPURAM","City":"THIRUVANANTHAPURAM","NewProviderCode":"RHIN04914","RefCode":"0","MailId":"attukaldevi@gmail.com","IsActive":true,"PMT_Member":"Jincy John","Pin_Code":"695009","Hospital_Name":"Attukal Devi Institute Of Medical Sciences Ltd.","Type":"IPD","Address":"Attukal , Manacaud , Thiruvananthapuram 695009,Attukal , Manacaud , Thiruvananthapuram 695009,Attukal , Manacaud , Thiruvananthapuram 695009","Priority":5},{"lat":"11.9413362","lng":"79.80844119999999","State":"PUDUCHERRY U T","ContactNumber":"91-0000000000","Area":"PONDICHERRY","District":"PONDICHERRY","City":"PONDICHERRY","NewProviderCode":"RHIN02568","RefCode":"0","MailId":"pondicherry@dragarwal.com","IsActive":true,"PMT_Member":"SIRISHA SIMHAM","Pin_Code":"605005","Hospital_Name":"Dr.Agarwal'S Health Care Ltd","Type":"IPD","Address":"Nsj Avenue, 601 Kamarajar Salai, Rajiv Gandhi Square,,","Priority":5},{"lat":"18.7632075","lng":"73.8613203","State":"MAHARASHTRA","ContactNumber":"","Area":"PUNE CITY","District":"PUNE","City":"PUNE CITY","NewProviderCode":"RHIN01658","RefCode":"0","MailId":"","IsActive":true,"PMT_Member":"Dr.Kirti Subhash Shinde","Pin_Code":"411501","Hospital_Name":"Healing Hands Clinic","Type":"IPD","Address":" Gokul Complex Gokul Complex Chakan Tal. Khed Pune 410501 Maharashtra","Priority":5},{"lat":"27.4874441","lng":"94.9302289","State":"ASSAM","ContactNumber":"91-9435340145","Area":"DIBRUGARH","District":"DIBRUGARH","City":"DIBRUGARH","NewProviderCode":"HGIX03681","RefCode":"0","MailId":"urovisionhospital@gmail.com","IsActive":true,"PMT_Member":"Pankaj Narzary","Pin_Code":"786005","Hospital_Name":"Urovision Hospital (A Unit Of Urovision Diagnostics & Research Centre Pvt Ltd)","Type":"IPD","Address":"Satsang Vihar Road,,","Priority":5},{"lat":"26.1646553","lng":"91.7688454","State":"ASSAM","ContactNumber":"91-9854035031","Area":"GMC","District":"KAMRUP","City":"GMC","NewProviderCode":"HGIX06840","RefCode":"0","MailId":"empanel@nemcarehospital.in","IsActive":true,"PMT_Member":"Pankaj Narzary","Pin_Code":"781005","Hospital_Name":"North East Medical Care And Research Centre Private Limited","Type":"IPD","Address":"GS Road,Bhangagarh,","Priority":5},{"lat":"26.1620495","lng":"91.7697044","State":"ASSAM","ContactNumber":"91-8822201201","Area":"KAMRUP","District":"KAMRUP","City":"KAMRUP","NewProviderCode":"HGIX06880","RefCode":"0","MailId":"marketing@nemcare.com","IsActive":true,"PMT_Member":"Pankaj Narzary","Pin_Code":"781005","Hospital_Name":"Nemcare Hospitals Pvt Ltd","Type":"IPD","Address":"Bangagarh Guwahati,,","Priority":5},{"lat":"9.9093693","lng":"76.2800021","State":"KERALA","ContactNumber":"9747514222","Area":"","District":"ERNAKULAM","City":"KOCHI","NewProviderCode":"RHIN05018","RefCode":"0","MailId":"fatima.hospital.doc@gmail.com","IsActive":true,"PMT_Member":"Jincy John","Pin_Code":"682006","Hospital_Name":"Fatima Hospital","Type":"IPD","Address":"20/2951 B, Cultes Road, Perumpadappu, Cochin,Kerala.,20/2951 B, Cultes Road, Perumpadappu, Cochin,Kerala.,20/2951 B, Cultes Road, Perumpadappu, Cochin,Kerala.","Priority":5},{"lat":"12.916921","lng":"77.55933","State":"Karnataka","ContactNumber":"7.76E+09","Area":"Padmanabha Nagar","District":"Bangalore","City":"Bangalore","NewProviderCode":"HGOX01788","RefCode":"HGIX01243","MailId":"NA","IsActive":true,"PMT_Member":"Jaikant Cs","Pin_Code":"560070","Hospital_Name":"Dr. Agarwals Eye Hospital","Type":"OPD","Address":"Pavanadhama, No.30, 80 Feet Road, R K Layout, Padmanabha Nagar","Priority":5},{"lat":"12.97429","lng":"80.24189","State":"TAMIL NADU","ContactNumber":"91-9444913234","Area":"CHENNAI","District":"CHENNAI","City":"CHENNAI","NewProviderCode":"HGIX00397","RefCode":"0","MailId":"insurance@noblehospital.in","IsActive":true,"PMT_Member":"SIRISHA SIMHA","Pin_Code":"600078","Hospital_Name":"NOBLE HOSPITAL","Type":"IPD","Address":"NO.04 AUDIAPPA STREET PURASAWALKAM,,","Priority":5},{"lat":"9.4440257","lng":"76.5199195","State":"KERALA","ContactNumber":"91-8005764898","Area":"KOTTAYAM","District":"KOTTAYAM","City":"KOTTAYAM","NewProviderCode":"HGOX04479","RefCode":"0","MailId":"business@mydentalplan.in","IsActive":true,"PMT_Member":"Jincy John","Pin_Code":"686101","Hospital_Name":"Punchiri Dental Clinic & Orthodontic Centre","Type":"OPD","Address":"Kanjooparampil Building, Near Changanassery Railway Station, Changanachery,Kanjooparampil Building, Near Changanassery Railway Station, Changanachery,Kanjooparampil Building, Near Changanassery Railway Station, Changanachery","Priority":5},{"lat":"26.1751319","lng":"91.7533178","State":"ASSAM","ContactNumber":"91-9864296662","Area":"GUWAHATI","District":"KAMRUP","City":"GUWAHATI","NewProviderCode":"HGIX03210","RefCode":"0","MailId":"aryahospital2004@gmail.com","IsActive":true,"PMT_Member":"Pankaj Narzary","Pin_Code":"781008","Hospital_Name":"North Eastern Medical Research Institute Ltd. (A Brand Name Arya hospital)","Type":"IPD","Address":"A M Road,,","Priority":5},{"lat":"19.2127","lng":"73.0884396","State":"MAHARASHTRA","ContactNumber":"91-8591154616","Area":"HAVELI","District":"PUNE","City":"HAVELI","NewProviderCode":"HGIX07242","RefCode":"0","MailId":"madhusudanhospital21@gmail.com","IsActive":true,"PMT_Member":"Dr.Kirti Subhash Shinde","Pin_Code":"412105","Hospital_Name":"Madhusudan Multispeciality Hospital","Type":"IPD","Address":"Plot No-93,Muktai Building,Opp DNC Ground,DNC Road Dombivli (Tast),Plot No-93,Muktai Building,Opp DNC Ground,DNC Road Dombivli (Tast),Plot No-93,Muktai Building,Opp DNC Ground,DNC Road Dombivli (Tast)","Priority":5},{"lat":"15.851513","lng":"74.518557","State":"KARNATAKA","ContactNumber":"91-9741068280","Area":"BELGAUM","District":"BELGAUM","City":"BELGAUM","NewProviderCode":"HGIX00833","RefCode":"0","MailId":"yashhospitalbgm@yahoo.com","IsActive":true,"PMT_Member":"SURYAKANT DESHETTY","Pin_Code":"590001","Hospital_Name":"YASH HOSPITAL CRITICAL CARE CENTRE","Type":"IPD","Address":"4924/3, MAHADWAR ROAD, BELGAUM,KARNATAKA,,","Priority":5},{"lat":"13.3381678","lng":"74.74663","State":"Karnataka","ContactNumber":"9.85E+09","Area":"Udupi","District":"Udupi","City":"Udupi","NewProviderCode":"HGOX02640","RefCode":"HGIX02385","MailId":"prasadnetralayaudupi@yahoo.com","IsActive":true,"PMT_Member":"Jaikant Cs","Pin_Code":"576101","Hospital_Name":"Prasad Netralaya","Type":"OPD","Address":"No.12-4-2 A1 Behind Alankar Theater, A J Alse Road,","Priority":5},{"lat":"8.5170906","lng":"76.9394645","State":"KERALA","ContactNumber":"91-8005764898","Area":"THIRUVANANTHAPURAM","District":"THIRUVANANTHAPURAM","City":"THIRUVANANTHAPURAM","NewProviderCode":"HGOX03856","RefCode":"0","MailId":"business@mydentalplan.in","IsActive":true,"PMT_Member":"Jincy John","Pin_Code":"695004","Hospital_Name":"Prathyusha Dental Care & Maxillofacial Prosth","Type":"OPD","Address":"IIIrd Floor YCDC , Opp Vydyuthi Bhavanam Pattom ,Trivandrum,IIIrd Floor YCDC , Opp Vydyuthi Bhavanam Pattom ,Trivandrum,IIIrd Floor YCDC , Opp Vydyuthi Bhavanam Pattom ,Trivandrum","Priority":5},{"lat":"9.9358009","lng":"78.1007467","State":"TAMIL NADU","ContactNumber":"91-8754411263","Area":"MADURAI","District":"MADURAI","City":"MADURAI","NewProviderCode":"RHIN02720","RefCode":"0","MailId":"madurai.apm@dragarwal.com","IsActive":true,"PMT_Member":"SIRISHA SIMHAM","Pin_Code":"625016","Hospital_Name":"Dr.Agarwal'S Health Care Ltd","Type":"IPD","Address":"No. 61, Plot No:1,Dd Main Road,Arapalayam,Madurai - 625 016.,,","Priority":5},{"lat":"26.1422254","lng":"91.7647453","State":"ASSAM","ContactNumber":"91-8011003128","Area":"GUWAHATI","District":"KAMRUP","City":"GUWAHATI","NewProviderCode":"RHIN01562","RefCode":"0","MailId":"hayatcashless@gmail.com","IsActive":true,"PMT_Member":"Pankaj Narzary","Pin_Code":"781034","Hospital_Name":"Hayat Hospital","Type":"IPD","Address":"Kahilipara Road Lalganesh, Odalbakra Guwahati,Assam 781034,Kahilipara Road Lalganesh, Odalbakra Guwahati,Assam 781034,Kahilipara Road Lalganesh, Odalbakra Guwahati,Assam 781034","Priority":5},{"lat":"10.7745991","lng":"79.1375849","State":"TAMIL NADU","ContactNumber":"91-0000000000","Area":"THANJAVUR","District":"THANJAVUR","City":"THANJAVUR","NewProviderCode":"RHIN02567","RefCode":"0","MailId":"thanjavur@dragarwal.com","IsActive":true,"PMT_Member":"SIRISHA SIMHAM","Pin_Code":"613007","Hospital_Name":"Dr.Agarwal'S Health Care Ltd","Type":"IPD","Address":"No.2851/30A,V O C Nagar, Trichy Main Road, Thanjavur - 613007,,","Priority":5},{"lat":"24.7907324","lng":"92.7941654","State":"ASSAM","ContactNumber":"91-6900854997","Area":"CACHAR","District":"CACHAR","City":"CACHAR","NewProviderCode":"HGIX06948","RefCode":"0","MailId":"greenheals.hospital@gmail.com","IsActive":true,"PMT_Member":"Pankaj Narzary","Pin_Code":"788015","Hospital_Name":"Green Heals Hospital Pvt Ltd.","Type":"IPD","Address":"Beltala Meherpur,Beltala Meherpur,Beltala Meherpur","Priority":5},{"lat":"13.0010289","lng":"77.5709324","State":"KARNATAKA","ContactNumber":"9036339111","Area":"NA","District":"BANGALORE","City":"BANGALORE NORTH","NewProviderCode":"RHIN03664","RefCode":"0","MailId":"sachetanaeyeclinic@gmail.com","IsActive":true,"PMT_Member":"SURYAKANT DESHETTY","Pin_Code":"560079","Hospital_Name":"Sachetana Eye Clinic And Microsurgical Centre","Type":"IPD","Address":"32, 10Th Cross, 1St Main, Prashanthanagar,32, 10Th Cross, 1St Main, Prashanthanagar,32, 10Th Cross, 1St Main, Prashanthanagar","Priority":5},{"lat":"9.936453","lng":"76.255569","State":"KERALA","ContactNumber":"9895188222","Area":"","District":"ERNAKULAM","City":"ERNAKULAM","NewProviderCode":"RHIN05011","RefCode":"0","MailId":"jacobshopsital111@gmail.com","IsActive":true,"PMT_Member":"Jincy John","Pin_Code":"682005","Hospital_Name":"Jacobs Hospital","Type":"IPD","Address":"Jacobs Hospital , thoppumpady , Eranakulam , Pin  -682005,Jacobs Hospital , thoppumpady , Eranakulam , Pin  -682005,Jacobs Hospital , thoppumpady , Eranakulam , Pin  -682005","Priority":5},{"lat":"12.927237","lng":"77.68378","State":"Karnataka","ContactNumber":"7.41E+09","Area":"Outer Ring Road","District":"Bangalore","City":"Bangalore","NewProviderCode":"HGOX00925","RefCode":"HGIX04356","MailId":"executive.pcs@sakraworldhospital.com","IsActive":true,"PMT_Member":"Jaikant Cs","Pin_Code":"560103","Hospital_Name":"Sakra World Hospital(A Unit Of Takshasila Operating Pvt Ltd)","Type":"OPD","Address":"52/2 & 52/3, Opp. Intel, Outer Ring Road, Marathahalli","Priority":5},{"lat":"22.5133699","lng":"88.35256","State":"West Bengal","ContactNumber":"9.23E+09","Area":"Besides Lake Stadium","District":"Kolkata","City":"Kolkata","NewProviderCode":"HGOX01850","RefCode":"HGIX03716","MailId":"susmitaame@amrihospitals.in","IsActive":true,"PMT_Member":"Ajai Saxena","Pin_Code":"700029","Hospital_Name":"Amri Hospitals Ltd.","Type":"OPD","Address":"97 A, Southern Avenue","Priority":5},{"lat":"12.3048715","lng":"76.69117","State":"KARNATAKA","ContactNumber":"9.63E+09","Area":"NA","District":"MYSORE","City":"MYSORE","NewProviderCode":"RHIN04585","RefCode":"0","MailId":"omegahospital@narcc.co.in","IsActive":true,"PMT_Member":"Jaikanth Cs","Pin_Code":"570011","Hospital_Name":"CAUVERY HEART & MULTISPECIALITY HOSPITAL","Type":"IPD","Address":"#756, New Kantharaje Urs Road, Teresian College Circle, Siddarthanagar,#756, New Kantharaje Urs Road, Teresian College Circle, Siddarthanagar,#756, New Kantharaje Urs Road, Teresian College Circle, Siddarthanagar","Priority":5},{"lat":"12.3","lng":"76.65","State":"KARNATAKA","ContactNumber":"91-9480442138","Area":"MYSORE","District":"MYSORE","City":"MYSORE","NewProviderCode":"HGIX00316","RefCode":"0","MailId":"jsshospital@sify.com","IsActive":true,"PMT_Member":"Jaikant","Pin_Code":"570004","Hospital_Name":"JAGADGURU SRI SHIVARATHREESWARA MEDICAL SERVICES TRUST","Type":"IPD","Address":"MAHATMA GANDHI ROAD MYSORE,,","Priority":5},{"lat":"25.6126928","lng":"85.1086852","State":"BIHAR","ContactNumber":"91-9955189414","Area":"PATNA","District":"PATNA","City":"PATNA","NewProviderCode":"HGIX04024","RefCode":"0","MailId":"asnursinghome1@gmail.com","IsActive":true,"PMT_Member":"Dr.Dhananjay Anand","Pin_Code":"800009","Hospital_Name":"A.S Nursing Home","Type":"IPD","Address":"Jitulal Lane Nalapar,,","Priority":5},{"lat":"27.4922177","lng":"94.9310484","State":"ASSAM","ContactNumber":"91-9435476444","Area":"DIBRUGARH","District":"DIBRUGARH","City":"DIBRUGARH","NewProviderCode":"HGIX04876","RefCode":"0","MailId":"adityahospitalsdib@gmail.com","IsActive":true,"PMT_Member":"Pankaj Narzary","Pin_Code":"786005","Hospital_Name":"Aditya Diagnostics Hospital","Type":"Both","Address":"Bordoloi Avenue, Dibrugarh,AMC Road, P O,Jalan Nagar","Priority":5},{"lat":"10.9979317","lng":"77.0164786","State":"TAMIL NADU","ContactNumber":"91-8012914000","Area":"COIMBATORE SOUTH","District":"COIMBATORE","City":"COIMBATORE SOUTH","NewProviderCode":"RHIN04725","RefCode":"0","MailId":"corporatebilling@kauveryhospital.com","IsActive":true,"PMT_Member":"SIRISHA SIMHAM","Pin_Code":"641005","Hospital_Name":"Dr. Muthu'S Hospital","Type":"IPD","Address":"No. 331/1, Trichy Road  Singanallur   Coimbatore  641005 Tamilnadu,,","Priority":5},{"lat":"15.8173647","lng":"74.51788","State":"KARNATAKA","ContactNumber":"8550887777","Area":"NA","District":"BELGAUM","City":"BELGAUM","NewProviderCode":"RHIN05078","RefCode":"0","MailId":"pro.klecchospital@gmail.com","IsActive":true,"PMT_Member":"Shrikanth M R","Pin_Code":"590005","Hospital_Name":"Kle Centenary Charitable Hospital And Mrc","Type":"IPD","Address":"Yellur Road, Belgaum,Karnataka,,","Priority":5},{"lat":"26.4394881","lng":"91.4373555","State":"ASSAM","ContactNumber":"91-7086880554","Area":"NALBARI","District":"NALBARI","City":"NALBARI","NewProviderCode":"HGIX07904","RefCode":"0","MailId":"billing.nmh@gmail.com","IsActive":true,"PMT_Member":"Pankaj Narzary","Pin_Code":"781335","Hospital_Name":"Nalbari Multispeciality Hospital","Type":"IPD","Address":"Alternatine Road,Nalbari Town Ward No.11,Alternatine Road,Nalbari Town Ward No.11,Alternatine Road,Nalbari Town Ward No.11","Priority":5},{"lat":"26.6769864","lng":"92.6983868","State":"ASSAM","ContactNumber":"91-7035022110","Area":"HAZARAPAR","District":"SONITPUR","City":"HAZARAPAR","NewProviderCode":"HGIX07221","RefCode":"0","MailId":"hospital@nemcarehospital.com","IsActive":true,"PMT_Member":"Pankaj Narzary","Pin_Code":"784001","Hospital_Name":"Nemcare Hospital Tezpur Pvt Ltd","Type":"IPD","Address":"Luit Valley Ranu Singh Road,Luit Valley Ranu Singh Road,Luit Valley Ranu Singh Road","Priority":5},{"lat":"22.5995906","lng":"88.372","State":"West Bengal","ContactNumber":"9.83E+09","Area":"Nayratna Lane","District":"Kolkata","City":"Kolkata","NewProviderCode":"HGOX00204","RefCode":"HGIX01417","MailId":"dreamlandnursinghome01@gmail.com","IsActive":true,"PMT_Member":"Ajai Saxena","Pin_Code":"700004","Hospital_Name":"Dreamland Nursing Home (Managed By Asthvinayak Health Care Limited)","Type":"OPD","Address":"2, Nayratna Lane, Kolkata","Priority":5},{"lat":"26.1389363","lng":"91.7941142","State":"ASSAM","ContactNumber":"91-9435543175","Area":"GUWAHATI","District":"KAMRUP","City":"GUWAHATI","NewProviderCode":"HGIX03522","RefCode":"0","MailId":"goodhealthhospital@rediffmail.com","IsActive":true,"PMT_Member":"Pankaj Narzary","Pin_Code":"781006","Hospital_Name":"Good Health Hospital Pvt. Ltd.","Type":"IPD","Address":"G S Road Dispur Guwahati, PO     Assam Sachibalay,,","Priority":5},{"lat":"18.5603798","lng":"73.81248","State":"Maharashtra","ContactNumber":"9.82E+09","Area":"Aundh","District":"Pune","City":"Pune","NewProviderCode":"HGOX02637","RefCode":"HGIX01528","MailId":"divyaeyeclinicpune@gmail.com","IsActive":true,"PMT_Member":"Yogesh Samnerkar","Pin_Code":"411007","Hospital_Name":"Divya Eye Clicnic","Type":"OPD","Address":"2, Shakun Apt, Above Bank Of Maharastra, Nr. Sony World, Aundh, Pune","Priority":5},{"lat":"9.9657787","lng":"76.2421147","State":"KERALA","ContactNumber":"91-8550988881","Area":"KOCHI","District":"ERNAKULAM","City":"KOCHI","NewProviderCode":"HGOX03140","RefCode":"0","MailId":"sdcp.rgicl@gmail.com","IsActive":true,"PMT_Member":"Jincy John","Pin_Code":"682002","Hospital_Name":"SECURE DENTAL CARE","Type":"OPD","Address":"Dr.Seby Dental Clinic, Little Flower Church, Silver Jubilee Building, Kunnumpuram Fort, Kochi,,","Priority":5},{"lat":"26.1432108","lng":"91.8118917","State":"ASSAM","ContactNumber":"91-8486655964","Area":"GUWAHATI","District":"KAMRUP","City":"GUWAHATI","NewProviderCode":"HGIX03209","RefCode":"0","MailId":"cashless@pratikshahospitals.com","IsActive":true,"PMT_Member":"Pankaj Narzary","Pin_Code":"781036","Hospital_Name":"Pratiksha Hospital","Type":"IPD","Address":"VIP road, Barbari,,","Priority":5},{"lat":"12.9669704","lng":"77.5872803","State":"KARNATAKA","ContactNumber":"91-9845138423","Area":"BANGALORE","District":"BANGALORE","City":"BANGALORE","NewProviderCode":"HGIX00884","RefCode":"0","MailId":"rangalakshminetralaya@gmail.com","IsActive":true,"PMT_Member":"SURYAKANT DESHETTY","Pin_Code":"560106","Hospital_Name":"RANGALAKSHMI NETRALAYA","Type":"IPD","Address":"#2054,13TH B MAIN, 3RD PHASE, NEAR MOTHER DAIRY CROSS, YELAHANKA NEW TOWN, BANGALORE,,","Priority":5},{"lat":"27.4947049","lng":"95.36909","State":"Assam","ContactNumber":"9.44E+09","Area":"Tinushkia","District":"Tinushkia","City":"Tinsukia","NewProviderCode":"HGOX02689","RefCode":"HGIX04593","MailId":"jeevanjyotinh@gmail.com","IsActive":true,"PMT_Member":"Ajai Saxena","Pin_Code":"786125","Hospital_Name":"Jeevan Jyoti Nursing Home","Type":"OPD","Address":"Parbatia Tinushkia Assam","Priority":5},{"lat":"12.2958104","lng":"76.6393805","State":"KARNATAKA","ContactNumber":"91-8550988881","Area":"MYSORE","District":"MYSORE","City":"MYSORE","NewProviderCode":"HGOX02965","RefCode":"0","MailId":"sdcp.rgicl@gmail.com","IsActive":true,"PMT_Member":"SURYAKANT DESHETTY","Pin_Code":"570001","Hospital_Name":"SECURE DENTAL CARE","Type":"OPD","Address":"Dr.Arun Dental Clinic, #1434/1-D4/1,,Sangeetha Vidhvan Devendrappa Circle, Hotel Gayathri Bhavan Building, Ground Floor, Opp. HP Petrol Bunk, Dhanvanthri Road,","Priority":5},{"lat":"8.490054","lng":"76.932617","State":"KERALA","ContactNumber":"91-9847062019","Area":"THIRUVANANTHAPURAM","District":"THIRUVANANTHAPURAM","City":"THIRUVANANTHAPURAM","NewProviderCode":"HGIX00688","RefCode":"0","MailId":"ananthapurihri@gmail.com","IsActive":true,"PMT_Member":"Sneha Eappan Kurian","Pin_Code":"695024","Hospital_Name":"ANANTHAPURI HOSPITAL AND RESEARCH INSTITUTE","Type":"IPD","Address":"CHACKA N.H BY PASS THIRUVANANTHAPURAM,,","Priority":5},{"lat":"18.6195406","lng":"73.84508","State":"Maharashtra","ContactNumber":"020-68109208","Area":"Pune","District":"Pune","City":"Pune","NewProviderCode":"HGOX00043","RefCode":"HGIX00844","MailId":"advancedeyesrugery@gmail.com","IsActive":true,"PMT_Member":"Yogesh Samnerkar","Pin_Code":"411039","Hospital_Name":"Dr. Raskar Eye Hospital","Type":"OPD","Address":"Akanksha, Bhosari, Alandi Road, Bhosari, Pune","Priority":5},{"lat":"12.8956152","lng":"77.60255","State":"Karnataka","ContactNumber":"7.76E+09","Area":"Bannerghatta","District":"Bangalore","City":"Bangalore","NewProviderCode":"HGOX01786","RefCode":"HGIX01241","MailId":"NA","IsActive":true,"PMT_Member":"Jaikant Cs","Pin_Code":"560076","Hospital_Name":"Dr. Agarwals Eye Hospital","Type":"OPD","Address":"C K Emerld, No.10, N S Palaya, Kavariyappa Industrial Area, Bannerghatta Road","Priority":5},{"lat":"17.6868481","lng":"83.2184972","State":"ANDHRA PRADESH","ContactNumber":"","Area":"","District":"VISAKHAPATNAM","City":"VISAKHAPATNAM URBAN","NewProviderCode":"RHIN03097","RefCode":"0","MailId":"","IsActive":true,"PMT_Member":"","Pin_Code":"530002","Hospital_Name":"Lg Hospitals ( A Unit Of L.G.H.Medical Specialities Private Limited)","Type":"IPD","Address":"17-1-17, Dr. Mangamma Hospital Building,Opp.Kgh Outgate \\Nmaharanipet,Visakhapartnam-530 002","Priority":5},{"lat":"26.503123","lng":"80.253455","State":"UTTAR PRADESH","ContactNumber":"91-7275266444","Area":"KANPUR","District":"KANPUR URBAN","City":"KANPUR","NewProviderCode":"RHIX04066","RefCode":"0","MailId":"tpadesk.abhishekhospital@gmail.com","IsActive":true,"PMT_Member":"","Pin_Code":"208017","Hospital_Name":"Abhishek Hospital","Type":"IPD","Address":"C-12, New Azad Nagar, kalyanpur,,","Priority":5},{"lat":"25.6020162","lng":"85.1671557","State":"BIHAR","ContactNumber":"","Area":"","District":"PATNA","City":"PATNA","NewProviderCode":"RHIN04951","RefCode":"0","MailId":"","IsActive":true,"PMT_Member":"","Pin_Code":"800020","Hospital_Name":"Rajeshwar Hospital","Type":"IPD","Address":"Near Bahadurpur Petrol Pump, Old Bypass Road, Kankarbagh","Priority":5},{"lat":"30.718718","lng":"76.771647","State":"CHANDIGARH U.T.","ContactNumber":"","Area":"","District":"CHANDIGARH","City":"CHANDIGARH","NewProviderCode":"RHIN03588","RefCode":"0","MailId":"","IsActive":true,"PMT_Member":"","Pin_Code":"160020","Hospital_Name":"Bedi Hospital","Type":"IPD","Address":"House No. 182  Sector 33A Chandigarh Chandigarh Punjab 160020","Priority":5},{"lat":"25.590267","lng":"85.1595361","State":"BIHAR","ContactNumber":"","Area":"","District":"PATNA","City":"PATNA","NewProviderCode":"RHIN01233","RefCode":"0","MailId":"","IsActive":true,"PMT_Member":"","Pin_Code":"800020","Hospital_Name":"Siddhi Hospital ( A Unit Of Prime Medicare }","Type":"IPD","Address":" K -88 , P C Colony ,  Hanuman Nagar Patna Patna 800020 Bihar","Priority":5},{"lat":"28.96803","lng":"77.7299231","State":"UTTAR PRADESH","ContactNumber":"91-9837571431","Area":"MEERUT","District":"MEERUT","City":"MEERUT","NewProviderCode":"HGIX04520","RefCode":"0","MailId":"madhunursinghome@gmail.com","IsActive":true,"PMT_Member":"","Pin_Code":"250004","Hospital_Name":"Madhu Nursing Home","Type":"IPD","Address":"44 A Nai Sarak Garh,Road, Shastri Nagar,Opp. Smarat Heaven Hotel","Priority":5},{"lat":"25.5763463","lng":"85.1589544","State":"BIHAR","ContactNumber":"","Area":"","District":"PATNA","City":"SAMPATCHAK","NewProviderCode":"RHIN03687","RefCode":"0","MailId":"","IsActive":true,"PMT_Member":"","Pin_Code":"800027","Hospital_Name":"Sai Hospital","Type":"IPD","Address":"Golki More, Khemnichak","Priority":5},{"lat":"13.6445016","lng":"79.4190191","State":"ANDHRA PRADESH","ContactNumber":"","Area":"","District":"CHITTOOR","City":"TIRUPATI","NewProviderCode":"RHIN04995","RefCode":"0","MailId":"","IsActive":true,"PMT_Member":"","Pin_Code":"517501","Hospital_Name":"Sunshine Hospital","Type":"IPD","Address":"18-1-50, Kapilatheertham Road, (K.T.Road)Tirupathi","Priority":5},{"lat":"26.4898289","lng":"90.5512204","State":"ASSAM","ContactNumber":"","Area":"","District":"BONGAIGAON","City":"BONGAIGAON","NewProviderCode":"RHIN04832","RefCode":"0","MailId":"","IsActive":true,"PMT_Member":"","Pin_Code":"783380","Hospital_Name":"Lower Assam Hospital & Research Centre","Type":"IPD","Address":"Chapaguri Road North, Amguri,Bongaigaon,Assam-783380","Priority":5},{"lat":"13.6364782","lng":"79.4215377","State":"ANDHRA PRADESH","ContactNumber":"","Area":"","District":"CHITTOOR","City":"TIRUPATI","NewProviderCode":"RHIN04170","RefCode":"0","MailId":"","IsActive":true,"PMT_Member":"","Pin_Code":"517501","Hospital_Name":"Russh Hospital ","Type":"IPD","Address":"#10-14-576/6, 1St Street, Opposite Muncipal Office, Reddy &Amp; Reddy Colony, Tirupati - 517501.","Priority":5},{"lat":"18.5292356","lng":"73.8306856","State":"MAHARASHTRA","ContactNumber":"","Area":"PUNE CITY","District":"PUNE","City":"PUNE CITY","NewProviderCode":"RHIN00627","RefCode":"0","MailId":"","IsActive":true,"PMT_Member":"","Pin_Code":"411016","Hospital_Name":"Om Hospital","Type":"IPD","Address":" Anjali Apartment Vetalbaba Chowk Shivajinagar","Priority":5},{"lat":"18.978692","lng":"73.02507729999999","State":"MAHARASHTRA","ContactNumber":"","Area":"KARJAT","District":"RAIGARH","City":"KARJAT","NewProviderCode":"RHIN04015","RefCode":"0","MailId":"","IsActive":true,"PMT_Member":"","Pin_Code":"410206","Hospital_Name":"Balaji Hospital","Type":"IPD","Address":" Shop No. 1, Ground Floor, Star Paradise Bldg., Plot- 84, Sector- 5, Ulwe","Priority":5},{"lat":"25.5896947","lng":"85.1571668","State":"BIHAR","ContactNumber":"","Area":"","District":"PATNA","City":"PATNA","NewProviderCode":"RHIN04626","RefCode":"0","MailId":"","IsActive":true,"PMT_Member":"","Pin_Code":"800020","Hospital_Name":"Shyam Hospital (A Unit Of Sam Health Care & Nursing Home Pvt. Ltd.)","Type":"IPD","Address":"90 Feet Road, Kailashpuri, Malaipakri, Kankarbagh","Priority":5},{"lat":"13.6306653","lng":"79.4129636","State":"ANDHRA PRADESH","ContactNumber":"","Area":"","District":"CHITTOOR","City":"TIRUPATI","NewProviderCode":"RHIN04677","RefCode":"0","MailId":"","IsActive":true,"PMT_Member":"","Pin_Code":"517501","Hospital_Name":"Vallabha Hospital","Type":"IPD","Address":"Tirumala Bypass Road, Opp Saptagiri Grameena Bank, Tirupati, Chittoor Dist, Andhra Pradesh","Priority":5},{"lat":"11.2796896","lng":"75.78438550000001","State":"KERALA","ContactNumber":"91-9847890606","Area":"KOZHIKODE","District":"KOZHIKODE","City":"KOZHIKODE","NewProviderCode":"NGIX00003","RefCode":"0","MailId":"kdchinsurance@gmail.com","IsActive":true,"PMT_Member":"","Pin_Code":"673006","Hospital_Name":"THE KOZHIKODE DISTRICT CO OPERATIVE  HOSPITAL  LIMITED","Type":"IPD","Address":"ERANHIPALAM,,","Priority":5},{"lat":"16.5124212","lng":"80.6285024","State":"ANDHRA PRADESH","ContactNumber":"","Area":"","District":"KRISHNA","City":"VIJAYAWADA","NewProviderCode":"RHIN02683","RefCode":"0","MailId":"","IsActive":true,"PMT_Member":"","Pin_Code":"520002","Hospital_Name":"Giridhar E.N.T Hospital & Laser Center - Vijayawada","Type":"IPD","Address":" 29/8/39 Ch Durgaiah Street Surya Rao Pet","Priority":5},{"lat":"25.6212003","lng":"85.1133338","State":"BIHAR","ContactNumber":"","Area":"","District":"PATNA","City":"PHULWARI","NewProviderCode":"RHIN04332","RefCode":"0","MailId":"","IsActive":true,"PMT_Member":"","Pin_Code":"800001","Hospital_Name":"Rahul Uro Gynaec And Research Center Pvt Ltd","Type":"IPD","Address":"21, Lal Bahadur Shastri Marg, Boring Road","Priority":5},{"lat":"17.4100304","lng":"78.42054759999999","State":"TELANGANA","ContactNumber":"91-8125266662","Area":"KHAIRATABAD","District":"HYDERABAD","City":"KHAIRATABAD","NewProviderCode":"RHIX05546","RefCode":"0","MailId":"niglhyd@gmail.com","IsActive":true,"PMT_Member":"","Pin_Code":"500034","Hospital_Name":"National Institute of Gastroenterology And Liver Diseases","Type":"IPD","Address":"H.No.- 344A, MLA Colony, Road No.-12, Banjara Hills, Hyderabad,H.No.- 344A, MLA Colony, Road No.-12, Banjara Hills, Hyderabad,","Priority":5},{"lat":"15.8197638","lng":"78.0417519","State":"ANDHRA PRADESH","ContactNumber":"","Area":"","District":"KURNOOL","City":"KURNOOL","NewProviderCode":"RHIN02950","RefCode":"0","MailId":"","IsActive":true,"PMT_Member":"","Pin_Code":"518002","Hospital_Name":"Sri Chakra Hospital - Kurnool","Type":"IPD","Address":"46/735","Priority":5},{"lat":"16.3191557","lng":"80.4380949","State":"ANDHRA PRADESH","ContactNumber":"","Area":"","District":"GUNTUR","City":"GUNTUR","NewProviderCode":"RHIN03222","RefCode":"0","MailId":"","IsActive":true,"PMT_Member":"","Pin_Code":"522007","Hospital_Name":"Knr Hospital","Type":"IPD","Address":"D.No: 4-14-227/1,Anjaneyapeta,Opp:Hindu Pharmacy College,Amaravathi Road,Guntur,Guntur(Dist),Andhra Pradesh-522007","Priority":5},{"lat":"21.2467645","lng":"81.5723966","State":"CHHATTISGARH","ContactNumber":"","Area":"","District":"RAIPUR","City":"RAIPUR","NewProviderCode":"RHIN04836","RefCode":"0","MailId":"","IsActive":true,"PMT_Member":"","Pin_Code":"492099","Hospital_Name":"Shri Sankalp Medical And Research Institute Private Limited","Type":"IPD","Address":"Shri Sankalp Hospital Near Sarona Railway Station ,Salasar Green Ring Road No.1, Raipur (C.G.),492099","Priority":5},{"lat":"11.9497375","lng":"79.814824","State":"PUDUCHERRY U T","ContactNumber":"91-7373202111","Area":"PONDICHERRY","District":"PONDICHERRY","City":"PONDICHERRY","NewProviderCode":"RHIX05411","RefCode":"0","MailId":"pdymgr@bewellhospitals.in","IsActive":true,"PMT_Member":"","Pin_Code":"605008","Hospital_Name":"Be Well Hospitals Pvt Ltd","Type":"IPD","Address":"No:15, East Cost Road, Lawspet, Green Gardens,No:15, East Cost Road, Lawspet, Green Gardens,","Priority":5},{"lat":"16.2991481","lng":"80.4502931","State":"ANDHRA PRADESH","ContactNumber":"","Area":"","District":"GUNTUR","City":"GUNTUR","NewProviderCode":"RHIN02806","RefCode":"0","MailId":"","IsActive":true,"PMT_Member":"","Pin_Code":"522001","Hospital_Name":"Karumuri Super Speciality Hospital Pvt Ltd","Type":"IPD","Address":"13-4-73 Old Club Road --Kothapet Guntur Guntur Andhrapradesh 522001","Priority":5},{"lat":"25.2509196","lng":"86.9934803","State":"BIHAR","ContactNumber":"","Area":"","District":"BHAGALPUR","City":"JAGDISHPUR","NewProviderCode":"RHIN03478","RefCode":"0","MailId":"","IsActive":true,"PMT_Member":"","Pin_Code":"812001","Hospital_Name":"Sushila Hospital","Type":"IPD","Address":"Nh-80, Adampur, Un Baghi Road South Lajpat Park","Priority":5},{"lat":"17.668912","lng":"75.319746","State":"MAHARASHTRA","ContactNumber":"","Area":"PANDHARPUR","District":"SOLAPUR","City":"PANDHARPUR","NewProviderCode":"RHIN04274","RefCode":"0","MailId":"","IsActive":true,"PMT_Member":"","Pin_Code":"413304","Hospital_Name":"Pandharpur Superspeciality Hospital & Research Center","Type":"IPD","Address":"C.S. No - 4530/A/B , Near Prant Office, Railway Station Road, Pandharpur - 413 304","Priority":5},{"lat":"17.416468","lng":"78.4175578","State":"TELANGANA","ContactNumber":"91-9912415124","Area":"HYDERABAD","District":"HYDERABAD","City":"HYDERABAD","NewProviderCode":"RHIX05015","RefCode":"0","MailId":"sriharinath.reddy@novaspecialtysurgery.com","IsActive":true,"PMT_Member":"","Pin_Code":"500034","Hospital_Name":"Apollo Cradle(A unit Of Nova Specialty Hospitals Pvt Ltd)","Type":"IPD","Address":"Plotno-565,Dharani devi bulding,Road no 92,Jubilee hills,","Priority":5},{"lat":"21.1337335","lng":"73.1097892","State":"GUJARAT","ContactNumber":"","Area":"BARDOLI","District":"SURAT","City":"BARDOLI","NewProviderCode":"RHIN01012","RefCode":"0","MailId":"","IsActive":true,"PMT_Member":"","Pin_Code":"394601","Hospital_Name":"Eye-Q Vision Pvt. Ltd.","Type":"IPD","Address":" 202 & 203, Surabhi Arcade Shashtri Road Bardoli Surat  394601 Gujarat","Priority":5},{"lat":"17.7112639","lng":"83.3047328","State":"ANDHRA PRADESH","ContactNumber":"","Area":"","District":"VISAKHAPATNAM","City":"VISAKHAPATNAM URBAN","NewProviderCode":"RHIN04398","RefCode":"0","MailId":"","IsActive":true,"PMT_Member":"","Pin_Code":"530002","Hospital_Name":"Siddharth Hospital","Type":"IPD","Address":"#13-9-12, Dandu Bazar Road, Jagadamba Junction, Maharanipeta","Priority":5},{"lat":"26.4137718","lng":"80.3320377","State":"UTTAR PRADESH","ContactNumber":"91-9335605848","Area":"KANPUR","District":"KANPUR URBAN","City":"KANPUR","NewProviderCode":"RHIX04036","RefCode":"0","MailId":"lakshyahospitaltpa@gmail.com","IsActive":true,"PMT_Member":"","Pin_Code":"208011","Hospital_Name":"Lakshya Hospital","Type":"IPD","Address":"128/1006, y, Block, Kidwai Nagar,,","Priority":5},{"lat":"17.7103293","lng":"83.3107467","State":"ANDHRA PRADESH","ContactNumber":"","Area":"","District":"VISAKHAPATNAM","City":"VISAKHAPATNAM URBAN","NewProviderCode":"RHIN00168","RefCode":"0","MailId":"","IsActive":true,"PMT_Member":"","Pin_Code":"530002","Hospital_Name":"Shree Krishna Health Centre","Type":"IPD","Address":"D.No: 15-12-12,Krishna Nagar,Maharanipeta","Priority":5},{"lat":"28.6413779","lng":"77.2785876","State":"","ContactNumber":"","Area":"","District":"","City":"","NewProviderCode":"RHIN01803","RefCode":"0","MailId":"","IsActive":true,"PMT_Member":"","Pin_Code":"110902","Hospital_Name":"Makkar Multispeciality Hospital(Run By Makkar Medical Centre Pvt.Ltd.)","Type":"IPD","Address":"A 1,2 Priyadarshini Vihar Near V3 Mall","Priority":5},{"lat":"26.4932215","lng":"80.2441063","State":"UTTAR PRADESH","ContactNumber":"","Area":"RAWATPUR GAON","District":"KANPUR URBAN","City":"RAWATPUR GAON","NewProviderCode":"RHIN02780","RefCode":"0","MailId":"","IsActive":true,"PMT_Member":"","Pin_Code":"208019","Hospital_Name":"Maa Durga Hospital & Research Centre","Type":"IPD","Address":" Shivli Road  Kalyanpur  Kalyanpur  Kanpur 208017","Priority":5},{"lat":"16.1785087","lng":"81.1241917","State":"ANDHRA PRADESH","ContactNumber":"","Area":"","District":"KRISHNA","City":"BANDAR","NewProviderCode":"RHIN04850","RefCode":"0","MailId":"","IsActive":true,"PMT_Member":"","Pin_Code":"521001","Hospital_Name":"Andhra Hospitals","Type":"IPD","Address":"D.No.4/124, 125, Rajupet, Machilipatnam","Priority":5},{"lat":"28.7095346","lng":"77.1887698","State":"DELHI","ContactNumber":"","Area":"","District":"NORTH WEST","City":"DELHI","NewProviderCode":"RHIN02203","RefCode":"0","MailId":"","IsActive":true,"PMT_Member":"","Pin_Code":"110009","Hospital_Name":"Vinayak Hospital","Type":"IPD","Address":"Plot No. 2, Main Road Derawal Nagar  Model Town","Priority":5},{"lat":"16.297015","lng":"80.4449608","State":"ANDHRA PRADESH","ContactNumber":"","Area":"","District":"GUNTUR","City":"GUNTUR","NewProviderCode":"RHIN03533","RefCode":"0","MailId":"","IsActive":true,"PMT_Member":"","Pin_Code":"522002","Hospital_Name":"Sri Sathya Sai Phaniendra Ent Hospital","Type":"IPD","Address":" Door No:5-37-221,Main Road 4/2 Brodipet,Guntur,Guntur(Dist),Andhra Pradesh","Priority":5},{"lat":"26.153193","lng":"85.3409558","State":"BIHAR","ContactNumber":"","Area":"","District":"VAISHALI","City":"KANTI","NewProviderCode":"RHIN01273","RefCode":"0","MailId":"","IsActive":true,"PMT_Member":"","Pin_Code":"843108","Hospital_Name":"Ghspl Muzf Super Speciality Healthcare Llp","Type":"IPD","Address":" Hazrat Colony, Sadadpur, Nh28 Bariya","Priority":5},{"lat":"13.6418216","lng":"79.4277353","State":"ANDHRA PRADESH","ContactNumber":"","Area":"","District":"CHITTOOR","City":"TIRUPATI","NewProviderCode":"RHIN01956","RefCode":"0","MailId":"","IsActive":true,"PMT_Member":"","Pin_Code":"517501","Hospital_Name":"Sri Maruthi Specialty Hospital","Type":"IPD","Address":"20-3-88/G1 Leela Mahal Centre Siva Jyothi Nagar  Tirumala Bypass Road Tirupati Ap 517501","Priority":5},{"lat":"25.6114136","lng":"85.0818293","State":"BIHAR","ContactNumber":"","Area":"","District":"PATNA","City":"PHULWARI","NewProviderCode":"RHIN04633","RefCode":"0","MailId":"","IsActive":true,"PMT_Member":"","Pin_Code":"800025","Hospital_Name":"Neelkanth Hospital(A Unit Of Shivam Healthservices Hospital Pvt. Ltd.)","Type":"IPD","Address":"1A/1, Neelkanth Colony,  Near Rakhi Complex, Ashiyana Digha Road","Priority":5},{"lat":"28.6619","lng":"77.4353","State":"DELHI","ContactNumber":"91-8377810216","Area":"GHAZIABAD","District":"DELHI","City":"GHAZIABAD","NewProviderCode":"RHIX04680","RefCode":"0","MailId":"babitachaudhory0707@gmail.com","IsActive":true,"PMT_Member":"","Pin_Code":"201001","Hospital_Name":"Pannalal Shyamlal Hospital","Type":"IPD","Address":"Ii-F/172, Ambedkar Road,Kalka Gardi Chowk,","Priority":5},{"lat":"0","lng":"0","State":"WEST BENGAL","ContactNumber":"91-9433010881","Area":"BARRACKPUR","District":"NORTH 24 PARGANAS","City":"BARRACKPUR","NewProviderCode":"HGIX03391","RefCode":"0","MailId":"ajitkumaradhya@yahoo.co.in","IsActive":true,"PMT_Member":"","Pin_Code":"700131","Hospital_Name":"New Barrackpur Nursing Home","Type":"IPD","Address":"Kodalia school road, Building Kdalia School Road New Barrackpur,,","Priority":5},{"lat":"16.298617","lng":"80.450787","State":"ANDHRA PRADESH","ContactNumber":"","Area":"","District":"GUNTUR","City":"GUNTUR","NewProviderCode":"RHIN05108","RefCode":"0","MailId":"","IsActive":true,"PMT_Member":"","Pin_Code":"522001","Hospital_Name":"Sri Balaji Hospital-Guntur","Type":"IPD","Address":"51-22-526  Yadavalli Vari Street Kothapeta","Priority":5},{"lat":"25.6194692","lng":"85.1528876","State":"BIHAR","ContactNumber":"","Area":"","District":"PATNA","City":"PHULWARI","NewProviderCode":"RHIN01389","RefCode":"0","MailId":"","IsActive":true,"PMT_Member":"","Pin_Code":"800004","Hospital_Name":"Arvind Hospital Pvt Ltd","Type":"IPD","Address":" Self Ashok Raj Path  Ashok Raj Path Patna 800004 Bihar","Priority":5},{"lat":"26.7543672","lng":"94.1926359","State":"ASSAM","ContactNumber":"","Area":"","District":"JORHAT","City":"JORHAT","NewProviderCode":"RHIN03686","RefCode":"0","MailId":"","IsActive":true,"PMT_Member":"","Pin_Code":"785001","Hospital_Name":"Sanjivani Hospital","Type":"IPD","Address":"At Road, Tarajan, Jorhat,","Priority":5},{"lat":"13.6395051","lng":"79.4187046","State":"ANDHRA PRADESH","ContactNumber":"","Area":"","District":"CHITTOOR","City":"TIRUPATI","NewProviderCode":"RHIN04154","RefCode":"0","MailId":"","IsActive":true,"PMT_Member":"","Pin_Code":"517501","Hospital_Name":"Sree Ramadevi Hospital","Type":"IPD","Address":"Plot No.82, Near Axis Bank, Sairam Street, Bhavani Nagar","Priority":5},{"lat":"25.62194","lng":"85.0434907","State":"BIHAR","ContactNumber":"","Area":"","District":"PATNA","City":"PATNA SADAR","NewProviderCode":"RHIN04302","RefCode":"0","MailId":"","IsActive":true,"PMT_Member":"","Pin_Code":"801503","Hospital_Name":"Dr.Bimal Hospital And Research Centre Pvt.Ltd-Patna","Type":"IPD","Address":"Adarsh Colony Saguna Morebailey Road Danapur Cantt Patna Bihar 801503","Priority":5},{"lat":"16.1707548","lng":"81.1174465","State":"ANDHRA PRADESH","ContactNumber":"","Area":"","District":"KRISHNA","City":"BANDAR","NewProviderCode":"RHIN04620","RefCode":"0","MailId":"","IsActive":true,"PMT_Member":"","Pin_Code":"521001","Hospital_Name":"Venkatarama Hospital","Type":"IPD","Address":"Javvarpet, Machilipatnam","Priority":5},{"lat":"25.607859","lng":"85.158295","State":"BIHAR","ContactNumber":"","Area":"","District":"PATNA","City":"PATNA SADAR","NewProviderCode":"RHIN04186","RefCode":"0","MailId":"","IsActive":true,"PMT_Member":"","Pin_Code":"800016","Hospital_Name":"B.S.L. Eye Care","Type":"IPD","Address":"85 A Block, Road No. 2 , Rajendra Nagar","Priority":5},{"lat":"16.2006845","lng":"80.5285648","State":"ANDHRA PRADESH","ContactNumber":"","Area":"","District":"GUNTUR","City":"CHEBROLU","NewProviderCode":"RHIN04295","RefCode":"0","MailId":"","IsActive":true,"PMT_Member":"","Pin_Code":"522213","Hospital_Name":"Dvc Hospital & Research Centre","Type":"IPD","Address":"D.No:12-299, Vadalmudi ( Village) Cherbolu ( M.D), Guntur (Dist ) Andhra Pradesh,","Priority":5},{"lat":"16.2988841","lng":"80.4528888","State":"ANDHRA PRADESH","ContactNumber":"","Area":"","District":"GUNTUR","City":"GUNTUR","NewProviderCode":"RHIN04962","RefCode":"0","MailId":"","IsActive":true,"PMT_Member":"","Pin_Code":"522001","Hospital_Name":"Amrutha Hospitals","Type":"IPD","Address":"Old Club Road, Kothapet, Guntur","Priority":5},{"lat":"27.4893023","lng":"94.9216504","State":"ASSAM","ContactNumber":"","Area":"","District":"DIBRUGARH","City":"DIBRUGARH","NewProviderCode":"RHIN04775","RefCode":"0","MailId":"","IsActive":true,"PMT_Member":"","Pin_Code":"786001","Hospital_Name":"J.J. Memorial Diagnostics & Hospitals Pvt. Ltd. ","Type":"IPD","Address":"Circuit House Road","Priority":5},{"lat":"28.6504648","lng":"77.2999311","State":"DELHI","ContactNumber":"","Area":"","District":"EAST","City":"EAST DELHI","NewProviderCode":"RHIN03910","RefCode":"0","MailId":"","IsActive":true,"PMT_Member":"","Pin_Code":"110092","Hospital_Name":"Shivam Surgical & Maternity Centre","Type":"IPD","Address":"#30, Shanti Vihar, Near Geetanjali, Apartments, Karkardooma","Priority":5},{"lat":"26.1284612","lng":"85.3764285","State":"BIHAR","ContactNumber":"","Area":"","District":"MUZAFFARPUR","City":"MUSHAHARI","NewProviderCode":"RHIN03167","RefCode":"0","MailId":"","IsActive":true,"PMT_Member":"","Pin_Code":"842001","Hospital_Name":"Ashoka Hospital ( A Unit Of White Feather Healthcare Pvt. Ltd.) ","Type":"IPD","Address":"Road No 1, Juran Chapra, Muzaffarpur - 842001, Bihar","Priority":5},{"lat":"17.7093207","lng":"83.3057774","State":"ANDHRA PRADESH","ContactNumber":"","Area":"","District":"VISAKHAPATNAM","City":"VISAKHAPATNAM URBAN","NewProviderCode":"RHIN02395","RefCode":"0","MailId":"","IsActive":true,"PMT_Member":"","Pin_Code":"530002","Hospital_Name":"Aditya Multicare Hospital (A Unit Of Adithya Global Healthcare Pvt Ltd)","Type":"IPD","Address":"Frount Way:Opp. K G H. Op Gate , Aditya Medical Complex,Bace Way Opp. Prahaladha Kalayana Mandapam","Priority":5},{"lat":"15.5112618","lng":"80.0415014","State":"ANDHRA PRADESH","ContactNumber":"","Area":"","District":"PRAKASAM","City":"ONGOLE","NewProviderCode":"RHIN04452","RefCode":"0","MailId":"","IsActive":true,"PMT_Member":"","Pin_Code":"523001","Hospital_Name":"Vijayasreesuperspeciality Hospital","Type":"IPD","Address":"Opp.Bus Stand, Sixty Feet Rd, Venkateswara Nagar, Ongole, Andhra Pradesh 523001","Priority":5},{"lat":"16.2971457","lng":"80.453612","State":"ANDHRA PRADESH","ContactNumber":"","Area":"","District":"GUNTUR","City":"GUNTUR","NewProviderCode":"RHIN04305","RefCode":"0","MailId":"","IsActive":true,"PMT_Member":"","Pin_Code":"522001","Hospital_Name":"Blossoms Childrens Hospital","Type":"IPD","Address":"D No 13-5-97, 4Th Lane,\\Ngunturi Vari Thota,","Priority":5},{"lat":"28.7200845","lng":"77.085518","State":"DELHI","ContactNumber":"","Area":"","District":"NORTH WEST","City":"DELHI","NewProviderCode":"RHIN03365","RefCode":"0","MailId":"","IsActive":true,"PMT_Member":"","Pin_Code":"110086","Hospital_Name":"Shree Aggarsain International Hospital ","Type":"IPD","Address":"Plot No. P.S.P. Sector -22, Rohini","Priority":5},{"lat":"16.9558286","lng":"82.2344881","State":"ANDHRA PRADESH","ContactNumber":"","Area":"","District":"GODAVARI - EAST","City":"KAKINADA","NewProviderCode":"RHIN04963","RefCode":"0","MailId":"","IsActive":true,"PMT_Member":"","Pin_Code":"533001","Hospital_Name":"7 Star Superspeciality Hospital","Type":"IPD","Address":"D- No. 20-1-61, Opposite Lic Building, Main Road","Priority":5},{"lat":"25.2383467","lng":"87.0230691","State":"BIHAR","ContactNumber":"","Area":"","District":"BHAGALPUR","City":"SABOUR","NewProviderCode":"RHIN01266","RefCode":"0","MailId":"","IsActive":true,"PMT_Member":"","Pin_Code":"813210","Hospital_Name":"Ghspl Bglp Super Speciality Healthcare Llp","Type":"IPD","Address":" Bansitikar, Hawai Adda Road Near Astha Complex","Priority":5},{"lat":"16.2989554","lng":"80.452823","State":"ANDHRA PRADESH","ContactNumber":"","Area":"","District":"GUNTUR","City":"GUNTUR","NewProviderCode":"RHIN03242","RefCode":"0","MailId":"","IsActive":true,"PMT_Member":"","Pin_Code":"522001","Hospital_Name":"Jayathi Hospitals ","Type":"IPD","Address":"D.No: 13-8-168,169,Old Club Road,Kothpet,Guntur","Priority":5},{"lat":"15.8543853","lng":"78.0107925","State":"ANDHRA PRADESH","ContactNumber":"","Area":"","District":"KURNOOL","City":"KURNOOL","NewProviderCode":"RHIN03951","RefCode":"0","MailId":"","IsActive":true,"PMT_Member":"","Pin_Code":"518002","Hospital_Name":"Vr Multispeciality Hospital","Type":"IPD","Address":"D No: 44/166,44/167 &Amp;Amp; 44/167-A,Opp Maremma Temple,Prakash Nagar, Sunkesula Road ,Kurnool-518002","Priority":5},{"lat":"17.3388426","lng":"78.57026","State":"TELANGANA","ContactNumber":"0","Area":"null","District":"sangareddy","City":"HYDERABAD","NewProviderCode":"RHIN02356","RefCode":"0","MailId":"0","IsActive":true,"PMT_Member":"null","Pin_Code":"500068","Hospital_Name":"Evya Hospitals And Diabetic Centre","Type":"IPD","Address":"5-5-1211,Opp.Panama Aarch Ganesh Nagar I &Ii Vanasthalipuram Ranga Reddy Telangana 500068","Priority":5},{"lat":"21.3548765","lng":"83.67653","State":"ODISHA","ContactNumber":"0","Area":"null","District":"BARGARH","City":"SOHELA","NewProviderCode":"RHIN03206","RefCode":"0","MailId":"0","IsActive":true,"PMT_Member":"null","Pin_Code":"768028","Hospital_Name":"Vikash Multi Speciality Hospital","Type":"IPD","Address":"Barahguda, Near Nh-46,Barahguda, Barahguda Canal Chowk, Bargarh - 768028, Odisha","Priority":5},